,route_id,service_id,trip_id,arrival_time,departure_time,stop_sequence,stop_id,stop_name,stop_lat,stop_lon,route_long_name,route_color,geometry,color
5842,1,1,98,06:10:00,06:10:00,1,2873,MONTGOMERY ST AT GREENE ST,40.716639,-74.035342,,0,POINT (-74.035342 40.716639),#0
5843,1,1,98,06:11:44,06:11:44,2,28808,GRAND ST AT WARREN ST,40.715529,-74.039181,,0,POINT (-74.039181 40.715529),#0
5844,1,1,98,06:12:31,06:12:31,3,28810,GRAND ST AT LUIS MUNOZ MARIN BLVD,40.715959,-74.043012,,0,POINT (-74.043012 40.715959),#0
5845,1,1,98,06:13:02,06:13:02,4,28811,GRAND ST AT BRIGHT ST,40.716258,-74.045481,,0,POINT (-74.045481 40.716258),#0
5846,1,1,98,06:13:56,06:13:56,5,39610,GRAND ST AT JERSEY AVE,40.71679,-74.050073,,0,POINT (-74.050073 40.71679),#0
5847,1,1,98,06:14:28,06:14:28,6,31597,GRAND ST AT MONMOUTH ST,40.71699,-74.05208,,0,POINT (-74.05208 40.71699),#0
5848,1,1,98,06:15:35,06:15:35,7,40853,PACIFIC AVE AT BARBARA PL,40.71548,-74.057053,,0,POINT (-74.057053 40.71548),#0
5849,1,1,98,06:15:53,06:15:53,8,40854,PACIFIC AVE AT ASH ST,40.714998,-74.057753,,0,POINT (-74.057753 40.714998),#0
5850,1,1,98,06:16:14,06:16:14,9,40618,PACIFIC AVE AT JOHNSTON AVE,40.713869,-74.059343,,0,POINT (-74.059343 40.713869),#0
5851,1,1,98,06:17:16,06:17:16,10,39612,PACIFIC AVE AT COMMUNIPAW AVE,40.71157,-74.062583,,0,POINT (-74.062583 40.71157),#0
5852,1,1,98,06:17:50,06:17:50,11,40560,COMMUNIPAW AVE AT WOODWARD ST,40.71294,-74.064413,,0,POINT (-74.064413 40.71294),#0
5853,1,1,98,06:18:37,06:18:37,12,40557,COMMUNIPAW AVE AT GARFIELD AVE,40.714858,-74.066963,,0,POINT (-74.066963 40.714858),#0
5854,1,1,98,06:19:00,06:19:00,13,27742,COMMUNIPAW AVE AT GRAND ST,40.715768,-74.068582,,0,POINT (-74.068582 40.715768),#0
5855,1,1,98,06:20:00,06:20:00,14,27744,COMMUNIPAW AVE AT CRESCENT AVE,40.716639,-74.07087,,0,POINT (-74.07087 40.716639),#0
5856,1,1,98,06:20:38,06:20:38,15,27745,COMMUNIPAW AVE AT MONTICELLO AVE,40.717447,-74.072871,,0,POINT (-74.072871 40.717447),#0
5857,1,1,98,06:21:46,06:21:46,16,27746,COMMUNIPAW AVE AT BERGEN AVE,40.718428,-74.075172,,0,POINT (-74.075172 40.718428),#0
5858,1,1,98,06:22:52,06:22:52,17,27747,COMMUNIPAW AVE AT J.F. KENNEDY BLVD,40.719757,-74.078392,,0,POINT (-74.078392 40.719757),#0
5859,1,1,98,06:24:33,06:24:33,18,27748,COMMUNIPAW AVE AT WEST SIDE AVE,40.721139,-74.081763,,0,POINT (-74.081763 40.721139),#0
5860,1,1,98,06:26:00,06:26:00,19,27749,COMMUNIPAW AVE AT MALLORY AVE,40.722539,-74.085242,,0,POINT (-74.085242 40.722539),#0
5861,1,1,98,06:26:41,06:26:41,20,38633,COMMUNIPAW AVE AT MARCY AVE,40.723668,-74.088641,,0,POINT (-74.088641 40.723668),#0
5862,1,1,98,06:26:52,06:26:52,21,27750,COMMUNIPAW AVE at RT-440 #,40.723999,-74.089552,,0,POINT (-74.089552 40.723999),#0
5863,1,1,98,06:29:40,06:29:40,22,30829,LINCOLN HWY AT HACKENSACK AVE,40.728759,-74.103803,,0,POINT (-74.103803 40.728759),#0
5864,1,1,98,06:32:02,06:32:02,23,39313,CENTRAL AVE 574' N OF HACKENSACK AVE.,40.727348,-74.110802,,0,POINT (-74.110802 40.727348),#0
5865,1,1,98,06:32:32,06:32:32,24,40859,CENTRAL AVE AT SOUTH HACKENSACK,40.725539,-74.111753,,0,POINT (-74.111753 40.725539),#0
5866,1,1,98,06:33:00,06:33:00,25,30833,RIVER TERMINAL (CENTRAL AVE),40.72469,-74.113191,,0,POINT (-74.113191 40.72469),#0
5867,1,1,98,06:34:02,06:34:02,26,43171,CENTRAL AVE 175'S OF FORD LANE,40.727189,-74.110714,,0,POINT (-74.110714 40.727189),#0
5868,1,1,98,06:38:05,06:38:05,27,2410,RAYMOND BLVD 244' W OF BLANCHARD ST.,40.734418,-74.129462,,0,POINT (-74.129462 40.734418),#0
5869,1,1,98,06:39:39,06:39:39,28,42778,LISTER AVE AT ESTHER ST,40.738819,-74.134362,,0,POINT (-74.134362 40.738819),#0
5870,1,1,98,06:40:22,06:40:22,29,43138,LISTER AVE 550'W OF CORNELIA ST,40.737898,-74.13924,,0,POINT (-74.13924 40.737898),#0
5871,1,1,98,06:41:00,06:41:00,30,28835,CHAPEL ST AT RIVERVIEW CT,40.735018,-74.140033,,0,POINT (-74.140033 40.735018),#0
5872,1,1,98,06:43:00,06:43:00,31,28813,CHAPEL ST AT FLEMING AVE,40.732459,-74.139841,,0,POINT (-74.139841 40.732459),#0
5873,1,1,98,06:43:56,06:43:56,32,27751,FLEMING AVE AT RICHARDS ST,40.732549,-74.141703,,0,POINT (-74.141703 40.732549),#0
5874,1,1,98,06:44:41,06:44:41,33,27752,FLEMING AVE AT CHRISTIE ST,40.73196,-74.143952,,0,POINT (-74.143952 40.73196),#0
5875,1,1,98,06:45:26,06:45:26,34,27753,FLEMING AVE AT OXFORD ST,40.731439,-74.145733,,0,POINT (-74.145733 40.731439),#0
5876,1,1,98,06:46:34,06:46:34,35,27755,MOTT ST AT MARKET ST,40.730179,-74.146713,,0,POINT (-74.146713 40.730179),#0
5877,1,1,98,06:47:42,06:47:42,36,28814,FERRY ST AT MAIN ST,40.729379,-74.148682,,0,POINT (-74.148682 40.729379),#0
5878,1,1,98,06:48:25,06:48:25,37,28815,FERRY ST AT FILLMORE ST,40.72902,-74.150512,,0,POINT (-74.150512 40.72902),#0
5879,1,1,98,06:49:20,06:49:20,38,27756,FERRY ST AT CHAMBERS ST,40.728529,-74.152991,,0,POINT (-74.152991 40.728529),#0
5880,1,1,98,06:50:22,06:50:22,39,27757,FERRY ST AT MERCHANT ST,40.72808,-74.155212,,0,POINT (-74.155212 40.72808),#0
5881,1,1,98,06:50:57,06:50:57,40,42546,FERRY ST AT POLK ST,40.72851,-74.156611,,0,POINT (-74.156611 40.72851),#0
5882,1,1,98,06:51:57,06:51:57,41,28817,FERRY ST AT ADAMS ST,40.729568,-74.158993,,0,POINT (-74.158993 40.729568),#0
5883,1,1,98,06:53:02,06:53:02,42,40863,FERRY ST AT JEFFERSON ST,40.730908,-74.161082,,0,POINT (-74.161082 40.730908),#0
5884,1,1,98,06:54:18,06:54:18,43,28820,FERRY ST AT UNION ST,40.732379,-74.162932,,0,POINT (-74.162932 40.732379),#0
5885,1,1,98,06:56:00,06:56:00,44,39786,MARKET ST BUS LANE AT RAYMOND PLAZA W,40.734089,-74.164613,,0,POINT (-74.164613 40.734089),#0
5886,1,1,98,06:58:01,06:58:01,45,2253,MARKET ST AT MULBERRY ST,40.734848,-74.169013,,0,POINT (-74.169013 40.734848),#0
5887,1,1,98,07:00:00,07:00:00,46,36899,MARKET ST AT BROAD ST,40.73581,-74.172702,,0,POINT (-74.172702 40.73581),#0
5888,1,1,98,07:00:50,07:00:50,47,2257,MARKET ST AT WASHINGTON ST,40.736388,-74.174533,,0,POINT (-74.174533 40.736388),#0
5889,1,1,98,07:03:00,07:03:00,48,27689,SPRINGFIELD AVE AT MLK JR BLVD,40.73652,-74.1795,,0,POINT (-74.1795 40.73652),#0
5890,1,1,98,07:04:16,07:04:16,49,28822,SPRINGFIELD AVE AT BROOME ST,40.735448,-74.184571,,0,POINT (-74.184571 40.735448),#0
5891,1,1,98,07:04:42,07:04:42,50,28823,SPRINGFIELD AVE AT PRINCE ST,40.735067,-74.186441,,0,POINT (-74.186441 40.735067),#0
5892,1,1,98,07:05:05,07:05:05,51,27759,SPRINGFIELD AVE AT IRVINE TURNER BLVD,40.734788,-74.188032,,0,POINT (-74.188032 40.734788),#0
5893,1,1,98,07:05:40,07:05:40,52,35326,15TH AVE AT BEDFORD ST,40.734999,-74.190323,,0,POINT (-74.190323 40.734999),#0
5894,1,1,98,07:05:58,07:05:58,53,43916,15TH AVE AT BRUCE ST,40.735319,-74.191733,,0,POINT (-74.191733 40.735319),#0
5895,1,1,98,07:07:30,07:07:30,54,27760,16TH AVE AT CAMDEN ST,40.734358,-74.196383,,0,POINT (-74.196383 40.734358),#0
5896,1,1,98,07:08:12,07:08:12,55,35293,16TH AVE AT 6TH ST,40.734889,-74.198721,,0,POINT (-74.198721 40.734889),#0
5897,1,1,98,07:08:25,07:08:25,56,28826,16TH AVE AT SOUTH 7TH ST,40.735078,-74.199583,,0,POINT (-74.199583 40.735078),#0
5898,1,1,98,07:09:01,07:09:01,57,28827,16TH AVE AT SOUTH 10TH ST,40.735629,-74.202051,,0,POINT (-74.202051 40.735629),#0
5899,1,1,98,07:09:46,07:09:46,58,28828,16TH AVE AT SOUTH 13TH ST,40.73629,-74.205021,,0,POINT (-74.205021 40.73629),#0
5900,1,1,98,07:10:26,07:10:26,59,28829,16TH AVE AT SOUTH 16TH ST,40.736898,-74.207712,,0,POINT (-74.207712 40.736898),#0
5901,1,1,98,07:11:00,07:11:00,60,35328,16TH AVE AT 18TH ST,40.737399,-74.209982,,0,POINT (-74.209982 40.737399),#0
5902,1,1,98,07:11:38,07:11:38,61,38479,16TH AVE AT 22ND ST,40.738128,-74.213301,,0,POINT (-74.213301 40.738128),#0
5903,1,1,98,07:11:59,07:11:59,62,40865,GROVE ST AT ARVERNE TERRACE,40.737577,-74.214291,,0,POINT (-74.214291 40.737577),#0
5904,1,1,98,07:12:32,07:12:32,63,1733,GROVE ST AT TICHENOR TERRACE,40.736068,-74.215163,,0,POINT (-74.215163 40.736068),#0
5905,1,1,98,07:12:48,07:12:48,64,27762,GROVE ST AT BRECKENRIDGE TERRACE,40.735139,-74.215813,,0,POINT (-74.215813 40.735139),#0
5906,1,1,98,07:13:28,07:13:28,65,27784,18TH AVE AT EASTERN PKWY,40.735758,-74.218291,,0,POINT (-74.218291 40.735758),#0
5907,1,1,98,07:13:56,07:13:56,66,27785,18TH AVE AT MYRTLE AVE,40.736788,-74.219843,,0,POINT (-74.219843 40.736788),#0
5908,1,1,98,07:14:25,07:14:25,67,27786,18TH AVE AT COLUMBIA AVE,40.73746,-74.22176,,0,POINT (-74.22176 40.73746),#0
5909,1,1,98,07:14:48,07:14:48,68,27787,18TH AVE AT VERMONT AVE,40.73806,-74.223403,,0,POINT (-74.223403 40.73806),#0
5910,1,1,98,07:15:30,07:15:30,69,27788,18TH AVE AT WEST END AVE,40.738638,-74.226453,,0,POINT (-74.226453 40.738638),#0
5911,1,1,98,07:15:46,07:15:46,70,27763,18TH AVE AT ALEXANDER ST,40.738898,-74.227713,,0,POINT (-74.227713 40.738898),#0
5912,1,1,98,07:16:22,07:16:22,71,27764,18TH AVE AT NORWOOD ST,40.739559,-74.230643,,0,POINT (-74.230643 40.739559),#0
5913,1,1,98,07:17:01,07:17:01,72,27765,18TH AVE AT SMITH ST,40.740348,-74.233112,,0,POINT (-74.233112 40.740348),#0
5914,1,1,98,07:17:51,07:17:51,73,27767,SANFORD AVE AT VARSITY RD,40.738898,-74.235351,,0,POINT (-74.235351 40.738898),#0
5915,1,1,98,07:18:30,07:18:30,74,28830,SANFORD AVE AT IVY ST,40.736807,-74.236471,,0,POINT (-74.236471 40.736807),#0
5916,1,1,98,07:18:52,07:18:52,75,27768,SANFORD AVE AT MT VERNON PL,40.735509,-74.237153,,0,POINT (-74.237153 40.735509),#0
5917,1,1,98,07:19:38,07:19:38,76,28831,MT. VERNON PL AT KERRIGAN BLVD,40.736309,-74.240133,,0,POINT (-74.240133 40.736309),#0
5918,1,1,98,07:20:05,07:20:05,77,28832,MT. VERNON PL AT NORMAN RD,40.736928,-74.242141,,0,POINT (-74.242141 40.736928),#0
5919,1,1,98,07:20:17,07:20:17,78,27769,MT. VERNON PL AT MIDLAND PL,40.737309,-74.243421,,0,POINT (-74.243421 40.737309),#0
5920,1,1,98,07:20:52,07:20:52,79,43050,MT. VERNON PL AT MANOR DR,40.737939,-74.245483,,0,POINT (-74.245483 40.737939),#0
5921,1,1,98,07:21:00,07:21:00,80,2204,IVY HILL LOOP (MT VERNON PL),40.737739,-74.24529,,0,POINT (-74.24529 40.737739),#0
36927,2,1,671,05:00:00,05:00:00,1,42828,JFK BLVD AT 3RD ST,40.648719,-74.137621,,0,POINT (-74.137621 40.648719),#0
36928,2,1,671,05:00:30,05:00:30,2,42829,JFK BLVD AT 4TH ST,40.650519,-74.136124,,0,POINT (-74.136124 40.650519),#0
36929,2,1,671,05:01:20,05:01:20,3,43261,JFK BLVD AT W 7TH STREET,40.652969,-74.135063,,0,POINT (-74.135063 40.652969),#0
36930,2,1,671,05:02:33,05:02:33,4,42830,JFK BLVD AT 8TH ST,40.65637,-74.131151,,0,POINT (-74.131151 40.65637),#0
36931,2,1,671,05:03:00,05:03:00,5,36863,JFK BLVD AT 10TH ST,40.657718,-74.130012,,0,POINT (-74.130012 40.657718),#0
36932,2,1,671,05:03:23,05:03:23,6,42831,JFK BLVD AT 12TH ST,40.658589,-74.129284,,0,POINT (-74.129284 40.658589),#0
36933,2,1,671,05:03:46,05:03:46,7,42832,JFK BLVD AT 14TH ST,40.660058,-74.12802,,0,POINT (-74.12802 40.660058),#0
36934,2,1,671,05:04:17,05:04:17,8,42833,JFK BLVD AT 16TH ST,40.66159,-74.12672,,0,POINT (-74.12672 40.66159),#0
36935,2,1,671,05:04:42,05:04:42,9,42834,JFK BLVD AT ANDREW ST,40.662768,-74.125771,,0,POINT (-74.125771 40.662768),#0
36936,2,1,671,05:05:03,05:05:03,10,42835,JFK BLVD AT 19TH ST,40.663908,-74.124721,,0,POINT (-74.124721 40.663908),#0
36937,2,1,671,05:05:27,05:05:27,11,42836,JFK BLVD AT 21ST ST,40.665048,-74.123732,,0,POINT (-74.123732 40.665048),#0
36938,2,1,671,05:05:55,05:05:55,12,42837,JFK BLVD AT 23RD ST,40.666498,-74.122541,,0,POINT (-74.122541 40.666498),#0
36939,2,1,671,05:07:00,05:07:00,13,42838,JFK BLVD AT 27TH ST,40.669649,-74.119863,,0,POINT (-74.119863 40.669649),#0
36940,2,1,671,05:07:34,05:07:34,14,42839,JFK BLVD AT 30TH ST,40.671638,-74.118222,,0,POINT (-74.118222 40.671638),#0
36941,2,1,671,05:08:05,05:08:05,15,42840,JFK BLVD AT 32ND ST,40.673208,-74.116913,,0,POINT (-74.116913 40.673208),#0
36942,2,1,671,05:08:46,05:08:46,16,42841,JFK BLVD AT 34TH ST,40.675658,-74.114821,,0,POINT (-74.114821 40.675658),#0
36943,2,1,671,05:09:27,05:09:27,17,42941,JFK BLVD AT 38 TH ST,40.678199,-74.114152,,0,POINT (-74.114152 40.678199),#0
36944,2,1,671,05:09:41,05:09:41,18,42842,JFK BLVD AT 39TH ST,40.67924,-74.113403,,0,POINT (-74.113403 40.67924),#0
36945,2,1,671,05:09:58,05:09:58,19,42843,JFK BLVD AT DELVIN DR,40.680289,-74.112642,,0,POINT (-74.112642 40.680289),#0
36946,2,1,671,05:10:31,05:10:31,20,43102,JFK BLVD AT W 44TH ST,40.681969,-74.111423,,0,POINT (-74.111423 40.681969),#0
36947,2,1,671,05:11:12,05:11:12,21,42844,JFK BLVD AT 48TH ST,40.684479,-74.109572,,0,POINT (-74.109572 40.684479),#0
36948,2,1,671,05:11:41,05:11:41,22,42845,JFK BLVD AT 50TH ST,40.686099,-74.108382,,0,POINT (-74.108382 40.686099),#0
36949,2,1,671,05:12:01,05:12:01,23,42846,JFK BLVD AT 52ND ST,40.68728,-74.107381,,0,POINT (-74.107381 40.68728),#0
36950,2,1,671,05:12:18,05:12:18,24,42847,JFK BLVD AT 54TH ST,40.688507,-74.106373,,0,POINT (-74.106373 40.688507),#0
36951,2,1,671,05:12:47,05:12:47,25,42848,JFK BLVD AT 57TH ST,40.689949,-74.105141,,0,POINT (-74.105141 40.689949),#0
36952,2,1,671,05:12:59,05:12:59,26,42849,JFK BLVD AT 58TH ST,40.690609,-74.10458,,0,POINT (-74.10458 40.690609),#0
36953,2,1,671,05:13:36,05:13:36,27,42850,JFK BLVD AT 63RD ST,40.692659,-74.102702,,0,POINT (-74.102702 40.692659),#0
36954,2,1,671,05:14:00,05:14:00,28,42882,JFK BLVD AT PAMRAPO AVE,40.693659,-74.100933,,0,POINT (-74.100933 40.693659),#0
36955,2,1,671,05:14:58,05:14:58,29,42883,JFK BLVD AT GATES AVE,40.695207,-74.099332,,0,POINT (-74.099332 40.695207),#0
36956,2,1,671,05:15:57,05:15:57,30,43259,JFK BLVD AT WINFIELD AVE,40.696978,-74.097561,,0,POINT (-74.097561 40.696978),#0
36957,2,1,671,05:16:34,05:16:34,31,42884,JFK BLVD AT PEARSALL AVE,40.697808,-74.096713,,0,POINT (-74.096713 40.697808),#0
36958,2,1,671,05:17:13,05:17:13,32,42885,JFK BLVD AT GREENVILLE AVE,40.699148,-74.095471,,0,POINT (-74.095471 40.699148),#0
36959,2,1,671,05:17:59,05:17:59,33,42886,JFK BLVD AT DANFORTH AVE,40.70014,-74.094342,,0,POINT (-74.094342 40.70014),#0
36960,2,1,671,05:19:00,05:19:00,34,42887,JFK BLVD AT MCADOO AVE,40.701658,-74.092513,,0,POINT (-74.092513 40.701658),#0
36961,2,1,671,05:19:35,05:19:35,35,42888,JFK BLVD AT WADE ST,40.702749,-74.09122,,0,POINT (-74.09122 40.702749),#0
36962,2,1,671,05:20:17,05:20:17,36,42889,JFK BLVD AT FOWLER AVE,40.704138,-74.090173,,0,POINT (-74.090173 40.704138),#0
36963,2,1,671,05:20:53,05:20:53,37,42891,JFK BLVD AT WOODLAWN AVE,40.705448,-74.089261,,0,POINT (-74.089261 40.705448),#0
36964,2,1,671,05:21:33,05:21:33,38,42892,JFK BLVD AT DWIGHT ST,40.706938,-74.088491,,0,POINT (-74.088491 40.706938),#0
36965,2,1,671,05:22:05,05:22:05,39,42893,JFK BLVD AT AUDUBON AVE,40.707889,-74.08725,,0,POINT (-74.08725 40.707889),#0
36966,2,1,671,05:22:47,05:22:47,40,43257,JFK BLVD 50'N OF BAYVIEW AVENUE,40.709177,-74.085792,,0,POINT (-74.085792 40.709177),#0
36967,2,1,671,05:23:35,05:23:35,41,42894,JFK BLVD AT BROADMAN PKWY,40.710989,-74.084642,,0,POINT (-74.084642 40.710989),#0
36968,2,1,671,05:24:01,05:24:01,42,42895,JFK BLVD AT CLAREMONT AVE,40.712178,-74.083832,,0,POINT (-74.083832 40.712178),#0
36969,2,1,671,05:24:42,05:24:42,43,42896,JFK BLVD AT MORTON PL,40.713427,-74.083101,,0,POINT (-74.083101 40.713427),#0
36970,2,1,671,05:25:07,05:25:07,44,42897,JFK BLVD AT EGE AVE,40.71445,-74.082683,,0,POINT (-74.082683 40.71445),#0
36971,2,1,671,05:25:49,05:25:49,45,42898,JFK BLVD AT BOYD AVE,40.716107,-74.081513,,0,POINT (-74.081513 40.716107),#0
36972,2,1,671,05:26:46,05:26:46,46,42899,JFK BLVD AT CLENDENNY AVE,40.717647,-74.079651,,0,POINT (-74.079651 40.717647),#0
36973,2,1,671,05:27:25,05:27:25,47,42900,JFK BLVD AT CLINTON AVE,40.718878,-74.078341,,0,POINT (-74.078341 40.718878),#0
36974,2,1,671,05:28:00,05:28:00,48,42901,JFK BLVD AT COMMUNIPAW AVE,40.720018,-74.077192,,0,POINT (-74.077192 40.720018),#0
36975,2,1,671,05:28:22,05:28:22,49,42902,JFK BLVD AT BENTLEY AVE,40.720928,-74.076392,,0,POINT (-74.076392 40.720928),#0
36976,2,1,671,05:29:28,05:29:28,50,42903,JFK BLVD AT KENSINGTON AVE,40.722807,-74.075104,,0,POINT (-74.075104 40.722807),#0
36977,2,1,671,05:29:50,05:29:50,51,42904,JFK BLVD AT JEWETT AVE,40.723747,-74.074441,,0,POINT (-74.074441 40.723747),#0
36978,2,1,671,05:30:41,05:30:41,52,42905,JFK BLVD AT DUNCAN AVE,40.725098,-74.073401,,0,POINT (-74.073401 40.725098),#0
36979,2,1,671,05:31:40,05:31:40,53,42906,JFK BLVD AT MONTGOMERY ST,40.726427,-74.07137,,0,POINT (-74.07137 40.726427),#0
36980,2,1,671,05:32:13,05:32:13,54,42907,JFK BLVD AT GLENWOOD AVE,40.72771,-74.07045,,0,POINT (-74.07045 40.72771),#0
36981,2,1,671,05:33:10,05:33:10,55,42908,JFK BLVD AT STUYVESANT AVE,40.729137,-74.069503,,0,POINT (-74.069503 40.729137),#0
36982,2,1,671,05:34:17,05:34:17,56,42909,JFK BLVD AT SIP AVE,40.731239,-74.067861,,0,POINT (-74.067861 40.731239),#0
36983,2,1,671,05:34:37,05:34:37,57,40861,SIP AVE AT TONNELLE AVE,40.731239,-74.067311,,0,POINT (-74.067311 40.731239),#0
36984,2,1,671,05:37:00,05:37:00,58,43249,JOURNAL SQUARE TRANSPORTATION CENTER,40.732048,-74.062003,,0,POINT (-74.062003 40.732048),#0
70756,3,3,1350,06:20:00,06:20:00,1,3220,31ST ST AT BERGENLINE AVE,40.771929,-74.03036,,0,POINT (-74.03036 40.771929),#0
70757,3,3,1350,06:20:33,06:20:33,2,3177,31ST ST AT JFK BLVD,40.773779,-74.033991,,0,POINT (-74.033991 40.773779),#0
70758,3,3,1350,06:39:00,06:39:00,3,12120,NORTH AREA TRANS CENTER - PORT ST,40.707739,-74.160031,,0,POINT (-74.160031 40.707739),#0
70759,3,3,1350,06:39:48,06:39:48,4,40830,BREWSTER RD 100'S OF AIRIS DR,40.707837,-74.16367,,0,POINT (-74.16367 40.707837),#0
70760,3,3,1350,06:41:30,06:41:30,5,39537,BREWSTER RD AT CONRAD RD,40.708029,-74.171791,,0,POINT (-74.171791 40.708029),#0
70761,3,3,1350,06:43:04,06:43:04,6,39538,BREWSTER RD AT BLDG 95,40.705889,-74.178053,,0,POINT (-74.178053 40.705889),#0
70762,3,3,1350,06:53:00,06:53:00,7,44012,TERMINAL A,40.684959,-74.188771,,0,POINT (-74.188771 40.684959),#0
70763,3,3,1350,06:55:07,06:55:07,8,28471,"NEWARK AIRPORT BUILDING #4 AT BUS HOV LANE, LOCAT",40.688159,-74.182531,,0,POINT (-74.182531 40.688159),#0
70764,3,3,1350,06:55:39,06:55:39,9,28472,TERMINAL B,40.691538,-74.177912,,0,POINT (-74.177912 40.691538),#0
70765,3,3,1350,06:56:00,06:56:00,10,28473,TERMINAL C,40.694859,-74.177992,,0,POINT (-74.177992 40.694859),#0
70766,3,3,1350,07:02:46,07:02:46,11,32601,FRELINGHUYSEN AVE AT VICTORIA ST,40.706818,-74.192991,,0,POINT (-74.192991 40.706818),#0
70767,3,3,1350,07:03:13,07:03:13,12,32602,FRELINGHUYSEN AVE AT NOBLE ST,40.704859,-74.194132,,0,POINT (-74.194132 40.704859),#0
70768,3,3,1350,07:03:44,07:03:44,13,2408,MEEKER AVE AT FRELINGHUYSEN AVE,40.703828,-74.195433,,0,POINT (-74.195433 40.703828),#0
70769,3,3,1350,07:04:23,07:04:23,14,2261,MEEKER AVE AT EMPIRE ST,40.706579,-74.196691,,0,POINT (-74.196691 40.706579),#0
70770,3,3,1350,07:05:00,07:05:00,15,2334,ELIZABETH AVE AT MEEKER AVE,40.709229,-74.19868,,0,POINT (-74.19868 40.709229),#0
70771,3,3,1350,07:05:30,07:05:30,16,2149,ELIZABETH AVE AT CUSTER AVE,40.709048,-74.200291,,0,POINT (-74.200291 40.709048),#0
70772,3,3,1350,07:06:08,07:06:08,17,2161,ELIZABETH AVE AT RENNER AVE,40.70798,-74.202063,,0,POINT (-74.202063 40.70798),#0
70773,3,3,1350,07:06:45,07:06:45,18,2156,ELIZABETH AVE AT LEHIGH AVE,40.706999,-74.203501,,0,POINT (-74.203501 40.706999),#0
70774,3,3,1350,07:07:36,07:07:36,19,2329,ELIZABETH AVE AT LYONS AVE,40.705788,-74.205903,,0,POINT (-74.205903 40.705788),#0
70775,3,3,1350,07:08:04,07:08:04,20,2148,LYONS AVE AT PORTER PL,40.706448,-74.207161,,0,POINT (-74.207161 40.706448),#0
70776,3,3,1350,07:08:39,07:08:39,21,2141,LYONS AVE AT BERGEN ST,40.707497,-74.20899,,0,POINT (-74.20899 40.707497),#0
70777,3,3,1350,07:09:25,07:09:25,22,2218,LYONS AVE AT PARKVIEW TERRACE,40.708539,-74.21087,,0,POINT (-74.21087 40.708539),#0
70778,3,3,1350,07:10:00,07:10:00,23,2217,LYONS AVE AT OSBORNE TERR,40.709377,-74.212362,,0,POINT (-74.212362 40.709377),#0
70779,3,3,1350,07:10:53,07:10:53,24,40964,LYONS AVE AT SCHUYLER AVE,40.710498,-74.214443,,0,POINT (-74.214443 40.710498),#0
70780,3,3,1350,07:12:00,07:12:00,25,2139,LYONS AVE AT ALDINE ST,40.711698,-74.216904,,0,POINT (-74.216904 40.711698),#0
70781,3,3,1350,07:12:54,07:12:54,26,2213,LYONS AVE AT DEWEY ST,40.71291,-74.219443,,0,POINT (-74.219443 40.71291),#0
70782,3,3,1350,07:13:34,07:13:34,27,2420,LYONS AVE AT LESLIE ST,40.713419,-74.22053,,0,POINT (-74.22053 40.713419),#0
70783,3,3,1350,07:14:10,07:14:10,28,2219,LYONS AVE AT FABYAN PLACE,40.714178,-74.222033,,0,POINT (-74.222033 40.714178),#0
70784,3,3,1350,07:15:09,07:15:09,29,1780,LYONS AVE 100'E OF CORDIER ST,40.715299,-74.224191,,0,POINT (-74.224191 40.715299),#0
70785,3,3,1350,07:16:23,07:16:23,30,1782,LYONS AVE AT COIT ST,40.717069,-74.226581,,0,POINT (-74.226581 40.717069),#0
70786,3,3,1350,07:17:16,07:17:16,31,1720,GROVE ST AT OLSON PL,40.718478,-74.226791,,0,POINT (-74.226791 40.718478),#0
70787,3,3,1350,07:18:34,07:18:34,32,1721,GROVE ST AT HERPERS ST,40.720928,-74.225201,,0,POINT (-74.225201 40.720928),#0
70788,3,3,1350,07:19:25,07:19:25,33,1722,GROVE ST AT NYE AVE,40.722528,-74.224172,,0,POINT (-74.224172 40.722528),#0
70789,3,3,1350,07:20:24,07:20:24,34,1723,GROVE ST AT CLINTON AVE,40.724479,-74.22289,,0,POINT (-74.22289 40.724479),#0
70790,3,3,1350,07:22:43,07:22:43,35,1820,SPRINGFIELD AVE AT MAPLE AVE,40.728039,-74.221773,,0,POINT (-74.221773 40.728039),#0
70791,3,3,1350,07:25:00,07:25:00,36,42733,IRVINGTON BUS TERMINAL,40.726279,-74.227171,,0,POINT (-74.227171 40.726279),#0
70792,3,3,1350,07:26:34,07:26:34,37,1822,CLINTON AVE AT ORANGE AVE,40.728239,-74.231371,,0,POINT (-74.231371 40.728239),#0
70793,3,3,1350,07:27:24,07:27:24,38,1792,CLINTON AVE AT CIVIC SQUARE,40.728759,-74.23419,,0,POINT (-74.23419 40.728759),#0
70794,3,3,1350,07:27:53,07:27:53,39,1793,CLINTON AVE AT STUYVESANT AVE,40.728978,-74.235891,,0,POINT (-74.235891 40.728978),#0
70795,3,3,1350,07:28:34,07:28:34,40,1825,CLINTON AVE AT HILLSIDE TERRACE,40.729258,-74.238221,,0,POINT (-74.238221 40.729258),#0
70796,3,3,1350,07:29:04,07:29:04,41,1827,CLINTON AVE AT SANFORD AVE,40.729507,-74.240074,,0,POINT (-74.240074 40.729507),#0
70797,3,3,1350,07:29:50,07:29:50,42,1794,CLINTON AVE AT ELLERY AVE,40.729869,-74.242442,,0,POINT (-74.242442 40.729869),#0
70798,3,3,1350,07:30:21,07:30:21,43,1795,CLINTON AVE AT FLORENCE AVE,40.730508,-74.243861,,0,POINT (-74.243861 40.730508),#0
70799,3,3,1350,07:31:02,07:31:02,44,1893,IRVINGTON AVE AT HILLCREST RD,40.73216,-74.244351,,0,POINT (-74.244351 40.73216),#0
70800,3,3,1350,07:32:00,07:32:00,45,2406,IRVINGTON AVE AT TUXEDO PKWY,40.733799,-74.246143,,0,POINT (-74.246143 40.733799),#0
70801,3,3,1350,07:32:26,07:32:26,46,39138,IRVINGTON AVE AT BOYDEN AVE,40.734297,-74.247982,,0,POINT (-74.247982 40.734297),#0
70802,3,3,1350,07:33:10,07:33:10,47,39519,MANOR DR 620' S OF MT. VERNON PL.,40.736418,-74.247072,,0,POINT (-74.247072 40.736418),#0
70803,3,3,1350,07:34:00,07:34:00,48,2204,IVY HILL LOOP (MT VERNON PL),40.737739,-74.24529,,0,POINT (-74.24529 40.737739),#0
70804,3,3,1350,07:34:45,07:34:45,49,39522,MANOR DR 620' S OF MT. VERNON PL.,40.736468,-74.247172,,0,POINT (-74.247172 40.736468),#0
70805,3,3,1350,07:35:32,07:35:32,50,2383,IRVINGTON AVE AT MANOR DR,40.73458,-74.249003,,0,POINT (-74.249003 40.73458),#0
70806,3,3,1350,07:36:24,07:36:24,51,43211,IRVINGTON AVE 1000'N OF MANOR DR,40.736758,-74.251122,,0,POINT (-74.251122 40.736758),#0
70807,3,3,1350,07:36:55,07:36:55,52,16528,IRVINGTON AVE AT SETON PL,40.738569,-74.251842,,0,POINT (-74.251842 40.738569),#0
70808,3,3,1350,07:38:05,07:38:05,53,16530,IRVINGTON AVE AT RIGGS PL,40.742299,-74.254443,,0,POINT (-74.254443 40.742299),#0
70809,3,3,1350,07:38:48,07:38:48,54,41208,IRVINGTON AVE AT PROSPECT ST,40.744108,-74.256064,,0,POINT (-74.256064 40.744108),#0
70810,3,3,1350,07:39:22,07:39:22,55,41209,SOUTH ORANGE AVE 75'W OF PROSPECT ST,40.745417,-74.255903,,0,POINT (-74.255903 40.745417),#0
70811,3,3,1350,07:40:15,07:40:15,56,41183,VALLEY ST AT 1ST ST,40.745179,-74.259182,,0,POINT (-74.259182 40.745179),#0
70812,3,3,1350,07:41:00,07:41:00,57,31695,SLOAN ST AT 2ND ST,40.744538,-74.261561,,0,POINT (-74.261561 40.744538),#0
70976,4,1,1355,07:00:00,07:00:00,1,2444,CLIFTON AVE AT E 7TH AVE,40.750599,-74.180042,,0,POINT (-74.180042 40.750599),#0
70977,4,1,1355,07:00:45,07:00:45,2,2010,EAST 7TH AVE AT MT. PROSPECT AVE,40.751347,-74.178812,,0,POINT (-74.178812 40.751347),#0
70978,4,1,1355,07:01:23,07:01:23,3,2008,EAST 7TH AVE AT AMITY PL,40.751158,-74.176943,,0,POINT (-74.176943 40.751158),#0
70979,4,1,1355,07:01:51,07:01:51,4,31541,EAST 7TH AVE AT RUGGIERIO PL,40.75109,-74.175382,,0,POINT (-74.175382 40.75109),#0
70980,4,1,1355,07:02:22,07:02:22,5,2012,EAST 7TH AVE AT SUMMER AVE,40.751029,-74.173841,,0,POINT (-74.173841 40.751029),#0
70981,4,1,1355,07:03:15,07:03:15,6,16541,PAVILLION APARTMENTS AT TOWER NORTH#,40.750479,-74.171952,,0,POINT (-74.171952 40.750479),#0
70982,4,1,1355,07:03:48,07:03:48,7,16542,PAVILLION APARTMENTS AT TOWER SOUTH#,40.749119,-74.172502,,0,POINT (-74.172502 40.749119),#0
70983,4,1,1355,07:05:00,07:05:00,8,2392,UNIVERSITY AVE AT LACKAWANNA AVE,40.74724,-74.171181,,0,POINT (-74.171181 40.74724),#0
70984,4,1,1355,07:05:29,07:05:29,9,16245,UNIVERSITY AVE AT ORANGE ST,40.746017,-74.171802,,0,POINT (-74.171802 40.746017),#0
70985,4,1,1355,07:06:28,07:06:28,10,40689,UNIVERSITY AVE AT JAMES ST,40.744118,-74.172752,,0,POINT (-74.172752 40.744118),#0
70986,4,1,1355,07:07:51,07:07:51,11,26098,CENTRAL AVE AT WASHINGTON ST,40.742198,-74.171912,,0,POINT (-74.171912 40.742198),#0
70987,4,1,1355,07:09:00,07:09:00,12,26099,CENTRAL AVE AT BROAD ST,40.741438,-74.169273,,0,POINT (-74.169273 40.741438),#0
70988,4,1,1355,07:09:53,07:09:53,13,38492,SARAH VAUGHAN WAY 90' W OF PARK PL.,40.739929,-74.16815,,0,POINT (-74.16815 40.739929),#0
70989,4,1,1355,07:13:41,07:13:41,14,43283,NEWARK PENN STATION,40.734928,-74.164003,,0,POINT (-74.164003 40.734928),#0
70990,4,1,1355,07:14:00,07:14:00,15,2275,BUS LANES (RAYMOND BLVD SIDE),40.734538,-74.163281,,0,POINT (-74.163281 40.734538),#0
70991,4,1,1355,07:14:57,07:14:57,16,2250,MARKET ST AT MONROE ST,40.732217,-74.157101,,0,POINT (-74.157101 40.732217),#0
70992,4,1,1355,07:15:33,07:15:33,17,2243,MARKET ST AT FERGUSON ST,40.731179,-74.15227,,0,POINT (-74.15227 40.731179),#0
70993,4,1,1355,07:15:53,07:15:53,18,2244,MARKET ST AT FILLMORE ST,40.730738,-74.150131,,0,POINT (-74.150131 40.730738),#0
70994,4,1,1355,07:16:20,07:16:20,19,2251,MARKET ST AT MOTT ST,40.729998,-74.146653,,0,POINT (-74.146653 40.729998),#0
70995,4,1,1355,07:16:50,07:16:50,20,2178,FERRY ST AT CHRISTIE ST,40.73062,-74.142961,,0,POINT (-74.142961 40.73062),#0
70996,4,1,1355,07:17:07,07:17:07,21,27718,FERRY ST AT HAWKINS ST,40.731368,-74.140953,,0,POINT (-74.140953 40.731368),#0
70997,4,1,1355,07:17:18,07:17:18,22,40809,FERRY ST AT COURTLAND PL,40.731878,-74.139664,,0,POINT (-74.139664 40.731878),#0
70998,4,1,1355,07:17:35,07:17:35,23,2401,FERRY ST AT MANUFACTURERS PL,40.732217,-74.137551,,0,POINT (-74.137551 40.732217),#0
70999,4,1,1355,07:18:01,07:18:01,24,2183,FERRY ST AT WAYDELL ST,40.732319,-74.1341,,0,POINT (-74.1341 40.732319),#0
71000,4,1,1355,07:18:27,07:18:27,25,2181,FERRY ST AT LOCKWOOD ST,40.733557,-74.131012,,0,POINT (-74.131012 40.733557),#0
71001,4,1,1355,07:18:48,07:18:48,26,2402,FERRY ST AT BLANCHARD ST,40.734278,-74.128483,,0,POINT (-74.128483 40.734278),#0
71002,4,1,1355,07:36:54,07:36:54,27,16363,30TH ST AT JFK BLVD,40.773568,-74.035293,,0,POINT (-74.035293 40.773568),#0
71003,4,1,1355,07:37:09,07:37:09,28,3174,30TH ST AT SUMMIT AVE,40.772738,-74.033422,,0,POINT (-74.033422 40.772738),#0
71004,4,1,1355,07:37:41,07:37:41,29,3223,30TH ST AT BERGENLINE AVE,40.770998,-74.029591,,0,POINT (-74.029591 40.770998),#0
71005,4,1,1355,07:38:00,07:38:00,30,3175,30TH ST AT PALISADE AVE,40.770239,-74.027803,,0,POINT (-74.027803 40.770239),#0
71006,4,1,1355,07:38:15,07:38:15,31,39135,30TH ST AT HUDSON AVE,40.769559,-74.026162,,0,POINT (-74.026162 40.769559),#0
71007,4,1,1355,07:38:29,07:38:29,32,3173,30TH ST AT PLEASANT AVE,40.76891,-74.024723,,0,POINT (-74.024723 40.76891),#0
71008,4,1,1355,07:45:34,07:45:34,33,43310,PORT AUTHORITY DROP OFF,40.756707,-73.992134,,0,POINT (-73.992134 40.756707),#0
71009,4,1,1355,07:46:00,07:46:00,34,43274,PORT AUTHORITY BUS TERMINAL,40.756209,-73.991001,,0,POINT (-73.991001 40.756209),#0
75925,5,1,1490,18:07:00,18:07:00,1,3922,WILLOWBROOK MALL SHOPPERS STOP,40.887048,-74.261032,,0,POINT (-74.261032 40.887048),#0
75926,5,1,1490,18:08:39,18:08:39,2,40347,WILLOWBROOK BLVD 385' W OF WILLOWBROOK BLVD EXTENS,40.885908,-74.255951,,0,POINT (-74.255951 40.885908),#0
75927,5,1,1490,18:10:16,18:10:16,3,3916,NORTH LEG 207'N OF WILLOWBROOK BLVD,40.889547,-74.25158,,0,POINT (-74.25158 40.889547),#0
75928,5,1,1490,18:12:54,18:12:54,4,4025,RT-23 AT MAIN ST,40.88561,-74.245392,,0,POINT (-74.245392 40.88561),#0
75929,5,1,1490,18:13:00,18:13:00,5,3977,MAIN ST AT RT-23,40.885629,-74.244891,,0,POINT (-74.244891 40.885629),#0
75930,5,1,1490,18:13:29,18:13:29,6,4002,MAIN ST AT DEWEY AVE,40.886349,-74.242332,,0,POINT (-74.242332 40.886349),#0
75931,5,1,1490,18:14:13,18:14:13,7,4003,MAIN ST AT SOUTH GREY ROCK AVE,40.885127,-74.238651,,0,POINT (-74.238651 40.885127),#0
75932,5,1,1490,18:14:40,18:14:40,8,4004,MAIN ST AT BROOKSIDE AVE,40.883998,-74.236353,,0,POINT (-74.236353 40.883998),#0
75933,5,1,1490,18:15:02,18:15:02,9,3976,MAIN ST AT MONTCLAIR AVE,40.883179,-74.234702,,0,POINT (-74.234702 40.883179),#0
75934,5,1,1490,18:15:32,18:15:32,10,4005,MAIN ST AT SHADY LANE,40.881998,-74.231673,,0,POINT (-74.231673 40.881998),#0
75935,5,1,1490,18:16:00,18:16:00,11,4289,MAIN ST AT CENTER AVE,40.88142,-74.229163,,0,POINT (-74.229163 40.88142),#0
75936,5,1,1490,18:16:21,18:16:21,12,16208,STEVENS AVE AT WARREN ST,40.880469,-74.228883,,0,POINT (-74.228883 40.880469),#0
75937,5,1,1490,18:17:05,18:17:05,13,16209,STEVENS AVE 200'S OF CRANE ST,40.876917,-74.230981,,0,POINT (-74.230981 40.876917),#0
75938,5,1,1490,18:17:39,18:17:39,14,16210,STEVENS AVE AT EAST LINDSLEY RD,40.874229,-74.232541,,0,POINT (-74.232541 40.874229),#0
75939,5,1,1490,18:18:52,18:18:52,15,1929,POMPTON AVE AT STEVENS AVE,40.86782,-74.235052,,0,POINT (-74.235052 40.86782),#0
75940,5,1,1490,18:19:20,18:19:20,16,37955,POMPTON AVE 80'N OF VINCENT RD,40.865529,-74.23377,,0,POINT (-74.23377 40.865529),#0
75941,5,1,1490,18:19:32,18:19:32,17,1930,POMPTON AVE AT FAIRVIEW AVE,40.8646,-74.233211,,0,POINT (-74.233211 40.8646),#0
75942,5,1,1490,18:20:22,18:20:22,18,1931,POMPTON AVE AT MAWAL DR,40.860539,-74.231683,,0,POINT (-74.231683 40.860539),#0
75943,5,1,1490,18:20:54,18:20:54,19,1932,POMPTON AVE AT BRUNSWICK RD,40.8575,-74.2308,,0,POINT (-74.2308 40.8575),#0
75944,5,1,1490,18:21:30,18:21:30,20,1933,POMPTON AVE AT GROVE AVE,40.854488,-74.230001,,0,POINT (-74.230001 40.854488),#0
75945,5,1,1490,18:22:00,18:22:00,21,1934,POMPTON AVE (RT-23) AT BOWDEN RD,40.851989,-74.229512,,0,POINT (-74.229512 40.851989),#0
75946,5,1,1490,18:22:19,18:22:19,22,1935,POMPTON AVE AT VREELAND LANE,40.850548,-74.229273,,0,POINT (-74.229273 40.850548),#0
75947,5,1,1490,18:22:35,18:22:35,23,1936,POMPTON AVE 290' S OF VREELAND LN,40.849389,-74.229082,,0,POINT (-74.229082 40.849389),#0
75948,5,1,1490,18:23:14,18:23:14,24,1937,POMPTON AVE AT WEST BRADFORD AVE,40.846498,-74.228651,,0,POINT (-74.228651 40.846498),#0
75949,5,1,1490,18:23:45,18:23:45,25,1938,POMPTON AVE 75' S OF SWEETWOOD DR,40.844459,-74.228371,,0,POINT (-74.228371 40.844459),#0
75950,5,1,1490,18:24:06,18:24:06,26,1939,POMPTON AVE AT OZONE AVE,40.842987,-74.22819,,0,POINT (-74.22819 40.842987),#0
75951,5,1,1490,18:24:22,18:24:22,27,1940,POMPTON AVE AT SOUTH MOUNTAIN AVE,40.841817,-74.228083,,0,POINT (-74.228083 40.841817),#0
75952,5,1,1490,18:25:00,18:25:00,28,1969,POMPTON AVE AT RIDGE RD,40.839228,-74.227783,,0,POINT (-74.227783 40.839228),#0
75953,5,1,1490,18:27:04,18:27:04,29,16211,POMPTON AVE AT MARTIN RD,40.830538,-74.228461,,0,POINT (-74.228461 40.830538),#0
75954,5,1,1490,18:28:01,18:28:01,30,16212,POMPTON AVE AT CLAREMONT AVE,40.826609,-74.230011,,0,POINT (-74.230011 40.826609),#0
75955,5,1,1490,18:28:51,18:28:51,31,16213,BLOOMFIELD AVE AT SUNSET AVE,40.824888,-74.228113,,0,POINT (-74.228113 40.824888),#0
75956,5,1,1490,18:29:42,18:29:42,32,36817,BLOOMFIELD AVE AT LLOYD RD,40.821709,-74.225842,,0,POINT (-74.225842 40.821709),#0
75957,5,1,1490,18:30:32,18:30:32,33,16215,BLOOMFIELD AVE AT ST. LUKE'S PL,40.81858,-74.223691,,0,POINT (-74.223691 40.81858),#0
75958,5,1,1490,18:31:09,18:31:09,34,1708,BLOOMFIELD AVE AT VALLEY RD,40.816749,-74.221392,,0,POINT (-74.221392 40.816749),#0
75959,5,1,1490,18:31:39,18:31:39,35,1706,BLOOMFIELD AVE AT PARK ST,40.815168,-74.219333,,0,POINT (-74.219333 40.815168),#0
75960,5,1,1490,18:32:00,18:32:00,36,1701,BLOOMFIELD AVE AT CHURCH ST,40.814108,-74.217983,,0,POINT (-74.217983 40.814108),#0
75961,5,1,1490,18:33:30,18:33:30,37,1702,BLOOMFIELD AVE AT GATES AVE,40.81105,-74.214111,,0,POINT (-74.214111 40.81105),#0
75962,5,1,1490,18:34:32,18:34:32,38,16217,BLOOMFIELD AVE AT HARTLEY ST,40.80857,-74.211581,,0,POINT (-74.211581 40.80857),#0
75963,5,1,1490,18:35:06,18:35:06,39,16218,BLOOMFIELD AVE AT MAPLE AVE,40.807219,-74.210201,,0,POINT (-74.210201 40.807219),#0
75964,5,1,1490,18:36:04,18:36:04,40,16219,BLOOMFIELD AVE 877' E OF MAPLE AVE.,40.804889,-74.207782,,0,POINT (-74.207782 40.804889),#0
75965,5,1,1490,18:36:40,18:36:40,41,16220,BLOOMFIELD AVE AT FREEMAN PKWY,40.803728,-74.206653,,0,POINT (-74.206653 40.803728),#0
75966,5,1,1490,18:37:47,18:37:47,42,16221,BLOOMFIELD AVE AT RIDGEWOOD AVE,40.800878,-74.204182,,0,POINT (-74.204182 40.800878),#0
75967,5,1,1490,18:38:35,18:38:35,43,16222,BLOOMFIELD AVE AT HILLSIDE AVE,40.799338,-74.202182,,0,POINT (-74.202182 40.799338),#0
75968,5,1,1490,18:39:33,18:39:33,44,16223,BLOOMFIELD AVE AT CLARK ST,40.79691,-74.200332,,0,POINT (-74.200332 40.79691),#0
75969,5,1,1490,18:40:17,18:40:17,45,16224,BLOOMFIELD AVE AT WARD ST,40.795098,-74.199063,,0,POINT (-74.199063 40.795098),#0
75970,5,1,1490,18:42:00,18:42:00,46,1831,BLOOMFIELD AVE AT BURROUGHS PLACE,40.79061,-74.196081,,0,POINT (-74.196081 40.79061),#0
75971,5,1,1490,18:42:46,18:42:46,47,16225,BLOOMFIELD AVE AT ORANGE ST,40.788659,-74.195081,,0,POINT (-74.195081 40.788659),#0
75972,5,1,1490,18:43:40,18:43:40,48,16226,BLOOMFIELD AVE AT ELLA ST,40.786269,-74.193821,,0,POINT (-74.193821 40.786269),#0
75973,5,1,1490,18:44:56,18:44:56,49,16227,BLOOMFIELD AVE AT WATSESSING AVE,40.782849,-74.191943,,0,POINT (-74.191943 40.782849),#0
75974,5,1,1490,18:45:48,18:45:48,50,16228,BLOOMFIELD AVE AT BERKELEY AVE,40.780849,-74.19056,,0,POINT (-74.19056 40.780849),#0
75975,5,1,1490,18:46:52,18:46:52,51,31992,BLOOMFIELD AVE AT AMPERE PKWY,40.778139,-74.188711,,0,POINT (-74.188711 40.778139),#0
75976,5,1,1490,18:47:57,18:47:57,52,16230,BLOOMFIELD AVE AT NORTH 15TH ST,40.775497,-74.18689,,0,POINT (-74.18689 40.775497),#0
75977,5,1,1490,18:48:27,18:48:27,53,16231,BLOOMFIELD AVE AT NORTH 13TH ST,40.774218,-74.186043,,0,POINT (-74.186043 40.774218),#0
75978,5,1,1490,18:48:44,18:48:44,54,16232,BLOOMFIELD AVE AT NORTH 12TH ST,40.773289,-74.185351,,0,POINT (-74.185351 40.773289),#0
75979,5,1,1490,18:49:30,18:49:30,55,16233,BLOOMFIELD AVE AT NORTH 10TH ST,40.77162,-74.1842,,0,POINT (-74.1842 40.77162),#0
75980,5,1,1490,18:49:56,18:49:56,56,16234,BLOOMFIELD AVE AT ROSEVILLE AVE,40.770548,-74.183492,,0,POINT (-74.183492 40.770548),#0
75981,5,1,1490,18:50:38,18:50:38,57,16235,BLOOMFIELD AVE AT NORTH 7TH ST,40.76891,-74.182373,,0,POINT (-74.182373 40.76891),#0
75982,5,1,1490,18:50:57,18:50:57,58,16236,BLOOMFIELD AVE AT 1ST AVE,40.767978,-74.181732,,0,POINT (-74.181732 40.767978),#0
75983,5,1,1490,18:52:00,18:52:00,59,16237,BLOOMFIELD AVENUE LIGHT RAIL STATION,40.765309,-74.179912,,0,POINT (-74.179912 40.765309),#0
75984,5,1,1490,18:53:19,18:53:19,60,16238,BLOOMFIELD AVE AT LAKE ST,40.762758,-74.178192,,0,POINT (-74.178192 40.762758),#0
75985,5,1,1490,18:54:11,18:54:11,61,16239,BLOOMFIELD AVE AT PARKER ST,40.760999,-74.177003,,0,POINT (-74.177003 40.760999),#0
75986,5,1,1490,18:55:00,18:55:00,62,16240,BLOOMFIELD AVE AT CLIFTON AVE,40.759387,-74.175881,,0,POINT (-74.175881 40.759387),#0
75987,5,1,1490,18:55:54,18:55:54,63,16241,BLOOMFIELD AVE AT GARSIDE ST,40.757477,-74.17461,,0,POINT (-74.17461 40.757477),#0
75988,5,1,1490,18:56:54,18:56:54,64,16242,BLOOMFIELD AVE AT SUMMER AVE,40.75565,-74.172923,,0,POINT (-74.172923 40.75565),#0
75989,5,1,1490,18:57:41,18:57:41,65,16243,BLOOMFIELD AVE AT WEBSTER ST,40.754219,-74.171593,,0,POINT (-74.171593 40.754219),#0
75990,5,1,1490,18:59:12,18:59:12,66,2066,BROADWAY AT 7TH AVE,40.750953,-74.170637,,0,POINT (-74.170637 40.750953),#0
75991,5,1,1490,19:00:12,19:00:12,67,2017,BROAD ST AT 8TH AVE,40.748969,-74.170453,,0,POINT (-74.170453 40.748969),#0
75992,5,1,1490,19:01:00,19:01:00,68,2392,UNIVERSITY AVE AT LACKAWANNA AVE,40.74724,-74.171181,,0,POINT (-74.171181 40.74724),#0
75993,5,1,1490,19:01:22,19:01:22,69,16245,UNIVERSITY AVE AT ORANGE ST,40.746017,-74.171802,,0,POINT (-74.171802 40.746017),#0
75994,5,1,1490,19:02:07,19:02:07,70,40689,UNIVERSITY AVE AT JAMES ST,40.744118,-74.172752,,0,POINT (-74.172752 40.744118),#0
75995,5,1,1490,19:02:47,19:02:47,71,16246,UNIVERSITY AVE AT CENTRAL AVE,40.742809,-74.173381,,0,POINT (-74.173381 40.742809),#0
75996,5,1,1490,19:03:12,19:03:12,72,40690,UNIVERSITY AVE AT BLEEKER ST,40.74168,-74.173922,,0,POINT (-74.173922 40.74168),#0
75997,5,1,1490,19:03:55,19:03:55,73,16247,UNIVERSITY AVE AT WARREN ST,40.73994,-74.174772,,0,POINT (-74.174772 40.73994),#0
75998,5,1,1490,19:04:51,19:04:51,74,16248,RAYMOND BLVD AT WASHINGTON ST,40.738279,-74.174002,,0,POINT (-74.174002 40.738279),#0
75999,5,1,1490,19:06:33,19:06:33,75,16250,RAYMOND BLVD AT MULBERRY ST,40.736629,-74.168302,,0,POINT (-74.168302 40.736629),#0
76000,5,1,1490,19:08:00,19:08:00,76,43283,NEWARK PENN STATION,40.734928,-74.164003,,0,POINT (-74.164003 40.734928),#0
86668,6,1,1634,13:06:00,13:06:00,1,27132,IKEA DR AT IKEA,40.673959,-74.169753,,0,POINT (-74.169753 40.673959),#0
86669,6,1,1634,13:07:24,13:07:24,2,27133,IKEA DR 200'N OF BIG LOTS STORE,40.672058,-74.171053,,0,POINT (-74.171053 40.672058),#0
86670,6,1,1634,13:10:00,13:10:00,3,43335,GLIMCHER REALTY WAY AT MARRIOTT,40.662617,-74.177153,,0,POINT (-74.177153 40.662617),#0
86671,6,1,1634,13:18:00,13:18:00,4,37233,JERSEY GARDENS - MAIN ENTRANCE,40.661798,-74.17093,,0,POINT (-74.17093 40.661798),#0
86672,6,1,1634,13:47:04,13:47:04,5,16363,30TH ST AT JFK BLVD,40.773568,-74.035293,,0,POINT (-74.035293 40.773568),#0
86673,6,1,1634,13:47:18,13:47:18,6,3174,30TH ST AT SUMMIT AVE,40.772738,-74.033422,,0,POINT (-74.033422 40.772738),#0
86674,6,1,1634,13:47:44,13:47:44,7,3223,30TH ST AT BERGENLINE AVE,40.770998,-74.029591,,0,POINT (-74.029591 40.770998),#0
86675,6,1,1634,13:48:00,13:48:00,8,3175,30TH ST AT PALISADE AVE,40.770239,-74.027803,,0,POINT (-74.027803 40.770239),#0
86676,6,1,1634,13:48:31,13:48:31,9,39135,30TH ST AT HUDSON AVE,40.769559,-74.026162,,0,POINT (-74.026162 40.769559),#0
86677,6,1,1634,13:49:01,13:49:01,10,3173,30TH ST AT PLEASANT AVE,40.76891,-74.024723,,0,POINT (-74.024723 40.76891),#0
86678,6,1,1634,14:04:05,14:04:05,11,43310,PORT AUTHORITY DROP OFF,40.756707,-73.992134,,0,POINT (-73.992134 40.756707),#0
86679,6,1,1634,14:05:00,14:05:00,12,43274,PORT AUTHORITY BUS TERMINAL,40.756209,-73.991001,,0,POINT (-73.991001 40.756209),#0
93445,7,3,1857,06:35:00,06:35:00,1,3511,PORT AUTHORITY BUS TERMINAL,40.756367,-73.990753,,0,POINT (-73.990753 40.756367),#0
93446,7,3,1857,07:03:00,07:03:00,2,40129,NORTH & DOWD AVES,40.676658,-74.195081,,0,POINT (-74.195081 40.676658),#0
93447,7,3,1857,07:04:26,07:04:26,3,27079,NORTH AVE AT VAN BUREN AVE,40.678168,-74.198823,,0,POINT (-74.198823 40.678168),#0
93448,7,3,1857,07:05:50,07:05:50,4,4323,NORTH AVE AT MONROE AVE,40.679599,-74.202223,,0,POINT (-74.202223 40.679599),#0
93449,7,3,1857,07:06:20,07:06:20,5,41215,MADISON AVE AT NORTH AVE,40.679659,-74.203393,,0,POINT (-74.203393 40.679659),#0
93450,7,3,1857,07:07:29,07:07:29,6,41216,MADISON AVE AT LOUISA ST,40.677587,-74.204852,,0,POINT (-74.204852 40.677587),#0
93451,7,3,1857,07:09:15,07:09:15,7,41217,FAIRMOUNT AVE AT JEFFERSON AVE,40.675658,-74.20695,,0,POINT (-74.20695 40.675658),#0
93452,7,3,1857,07:10:18,07:10:18,8,41218,FAIRMOUNT AVE AT PENNSYLVANIA AVE,40.676409,-74.2098,,0,POINT (-74.2098 40.676409),#0
93453,7,3,1857,07:12:17,07:12:17,9,32517,NEWARK AVE AT WAVERLY PL,40.678919,-74.210251,,0,POINT (-74.210251 40.678919),#0
93454,7,3,1857,07:13:53,07:13:53,10,28754,NORTH AVE AT NEWARK AVE,40.68155,-74.208891,,0,POINT (-74.208891 40.68155),#0
93455,7,3,1857,07:14:30,07:14:30,11,27083,NORTH AVE AT CROSS AVE,40.68189,-74.211073,,0,POINT (-74.211073 40.68189),#0
93456,7,3,1857,07:16:00,07:16:00,12,28760,N BROAD ST AT NORTH AVE,40.681939,-74.214282,,0,POINT (-74.214282 40.681939),#0
93457,7,3,1857,07:17:01,07:17:01,13,27084,NORTH BROAD ST AT DEWITT RD,40.680267,-74.213811,,0,POINT (-74.213811 40.680267),#0
93458,7,3,1857,07:19:26,07:19:26,14,27085,NORTH BROAD ST AT SALEM AVE,40.676138,-74.213431,,0,POINT (-74.213431 40.676138),#0
93459,7,3,1857,07:21:17,07:21:17,15,27086,NORTH BROAD ST AT PARKER RD,40.672948,-74.21372,,0,POINT (-74.21372 40.672948),#0
93460,7,3,1857,07:22:28,07:22:28,16,27087,NORTH BROAD ST AT PRINCE ST,40.671378,-74.214864,,0,POINT (-74.214864 40.671378),#0
93461,7,3,1857,07:24:06,07:24:06,17,27088,BROAD ST AT WESTFIELD AVE,40.668777,-74.215783,,0,POINT (-74.215783 40.668777),#0
93462,7,3,1857,07:26:00,07:26:00,18,27089,BROAD ST AT JERSEY ST,40.665629,-74.214901,,0,POINT (-74.214901 40.665629),#0
93463,7,3,1857,07:27:21,07:27:21,19,27091,W JERSEY ST AT PRICE ST,40.664859,-74.218232,,0,POINT (-74.218232 40.664859),#0
93464,7,3,1857,07:28:09,07:28:09,20,27092,W JERSEY ST AT CHERRY ST,40.664218,-74.22067,,0,POINT (-74.22067 40.664218),#0
93465,7,3,1857,07:29:06,07:29:06,21,27093,W JERSEY ST AT CHILTON ST,40.663659,-74.222992,,0,POINT (-74.222992 40.663659),#0
93466,7,3,1857,07:30:12,07:30:12,22,27094,W JERSEY ST AT DE HART PL,40.662848,-74.226002,,0,POINT (-74.226002 40.662848),#0
93467,7,3,1857,07:31:21,07:31:21,23,27095,JERSEY AVE AT GROVE ST,40.662239,-74.229111,,0,POINT (-74.229111 40.662239),#0
93468,7,3,1857,07:33:00,07:33:00,24,27096,JERSEY AVE AT ELMORA AVE,40.661609,-74.233691,,0,POINT (-74.233691 40.661609),#0
93469,7,3,1857,07:33:41,07:33:41,25,27097,JERSEY AVE AT BELLEVUE ST,40.661198,-74.236751,,0,POINT (-74.236751 40.661198),#0
93470,7,3,1857,07:34:28,07:34:28,26,27098,JERSEY AVE AT STANDISH ST,40.660738,-74.239942,,0,POINT (-74.239942 40.660738),#0
93471,7,3,1857,07:35:08,07:35:08,27,27099,3RD AVE AT PARK ST,40.660398,-74.242763,,0,POINT (-74.242763 40.660398),#0
93472,7,3,1857,07:35:31,07:35:31,28,27100,3RD AVE AT PROSPECT ST,40.660129,-74.245081,,0,POINT (-74.245081 40.660129),#0
93473,7,3,1857,07:36:08,07:36:08,29,27101,3RD AVE AT LINDEN RD,40.659737,-74.247393,,0,POINT (-74.247393 40.659737),#0
93474,7,3,1857,07:37:01,07:37:01,30,27102,2ND AVE AT SHERIDAN AVE,40.660658,-74.250342,,0,POINT (-74.250342 40.660658),#0
93475,7,3,1857,07:37:32,07:37:32,31,27103,2ND AVE AT MYRTLE ST,40.66028,-74.253073,,0,POINT (-74.253073 40.66028),#0
93476,7,3,1857,07:38:06,07:38:06,32,27104,2ND AVE AT CHANDLER AVE,40.659959,-74.255522,,0,POINT (-74.255522 40.659959),#0
93477,7,3,1857,07:39:13,07:39:13,33,27105,2ND AVE AT WALNUT ST,40.659288,-74.260571,,0,POINT (-74.260571 40.659288),#0
93478,7,3,1857,07:40:00,07:40:00,34,27106,2ND AVE AT CHESTNUT ST,40.658858,-74.263751,,0,POINT (-74.263751 40.658858),#0
93479,7,3,1857,07:41:03,07:41:03,35,27107,1ST AVE AT LAUREL ST,40.65951,-74.268411,,0,POINT (-74.268411 40.65951),#0
93480,7,3,1857,07:41:58,07:41:58,36,27108,1ST AVE AT VINE ST,40.658959,-74.272372,,0,POINT (-74.272372 40.658959),#0
93481,7,3,1857,07:42:29,07:42:29,37,27109,1ST AVE AT CLOVER ST,40.658529,-74.275551,,0,POINT (-74.275551 40.658529),#0
93482,7,3,1857,07:43:41,07:43:41,38,27111,AMSTERDAM AVE AT 3RD AVE,40.655778,-74.277441,,0,POINT (-74.277441 40.655778),#0
93483,7,3,1857,07:44:02,07:44:02,39,27112,AMSTERDAM AVE AT ROBINS ST,40.654399,-74.27771,,0,POINT (-74.27771 40.654399),#0
93484,7,3,1857,07:44:41,07:44:41,40,27113,AMSTERDAM AVE AT CHRISTIANI ST,40.652059,-74.278913,,0,POINT (-74.278913 40.652059),#0
93485,7,3,1857,07:44:56,07:44:56,41,27114,AMSTERDAM AVE AT DIETZ ST,40.650927,-74.280061,,0,POINT (-74.280061 40.650927),#0
93486,7,3,1857,07:45:52,07:45:52,42,23879,WOOD AVE AT 5TH AVE,40.648439,-74.27925,,0,POINT (-74.27925 40.648439),#0
93487,7,3,1857,07:47:00,07:47:00,43,23880,WOOD AVE AT DRAPKIN AVE,40.645208,-74.274993,,0,POINT (-74.274993 40.645208),#0
93488,7,3,1857,07:47:41,07:47:41,44,23896,RARITAN RD AT FURBER AVE,40.644808,-74.278182,,0,POINT (-74.278182 40.644808),#0
93489,7,3,1857,07:48:34,07:48:34,45,23897,RARITAN RD AT MOEN AVE,40.642728,-74.282944,,0,POINT (-74.282944 40.642728),#0
93490,7,3,1857,07:49:22,07:49:22,46,23908,RARITAN RD AT COLEMAN AVE,40.64069,-74.286321,,0,POINT (-74.286321 40.64069),#0
93491,7,3,1857,07:50:33,07:50:33,47,27116,RARITAN RD AT MOHAWK DR,40.639218,-74.292773,,0,POINT (-74.292773 40.639218),#0
93492,7,3,1857,07:51:31,07:51:31,48,27117,RARITAN RD AT ORATON DR,40.637527,-74.297862,,0,POINT (-74.297862 40.637527),#0
93493,7,3,1857,07:52:25,07:52:25,49,41220,RARITAN RD AT COLIN KELLY ST,40.634768,-74.302162,,0,POINT (-74.302162 40.634768),#0
93494,7,3,1857,07:53:25,07:53:25,50,43841,RARITAN RD 536'N OF SHOPRITE WAY,40.63188,-74.306973,,0,POINT (-74.306973 40.63188),#0
93495,7,3,1857,07:54:42,07:54:42,51,27121,RARITAN RD AT TERRY LN,40.629249,-74.312972,,0,POINT (-74.312972 40.629249),#0
93496,7,3,1857,07:55:26,07:55:26,52,23898,RARITAN RD AT COMMERCE PL,40.627079,-74.316024,,0,POINT (-74.316024 40.627079),#0
93497,7,3,1857,07:56:10,07:56:10,53,41222,RARITAN RD AT SCHUYLER DR,40.624149,-74.318851,,0,POINT (-74.318851 40.624149),#0
93498,7,3,1857,07:57:13,07:57:13,54,27124,RARITAN RD AT FEATHERBED LN,40.620349,-74.321761,,0,POINT (-74.321761 40.620349),#0
93499,7,3,1857,07:58:03,07:58:03,55,41223,RARITAN RD AT CHESTNUT ST,40.616888,-74.323751,,0,POINT (-74.323751 40.616888),#0
93500,7,3,1857,07:59:54,07:59:54,56,41224,OAK RIDGE RD AT LAKE AVE,40.612007,-74.331991,,0,POINT (-74.331991 40.612007),#0
93501,7,3,1857,08:01:00,08:01:00,57,40131,LAKE AVE AT CELLAR AVE,40.614808,-74.337133,,0,POINT (-74.337133 40.614808),#0
93502,7,3,1857,08:01:49,08:01:49,58,43866,MARTINE AVE AT LAKE AVE,40.617858,-74.341403,,0,POINT (-74.341403 40.617858),#0
93503,7,3,1857,08:06:00,08:06:00,59,28759,UCTS,40.617828,-74.359021,,0,POINT (-74.359021 40.617828),#0
96283,8,1,1901,09:00:00,09:00:00,1,3511,PORT AUTHORITY BUS TERMINAL,40.756367,-73.990753,,0,POINT (-73.990753 40.756367),#0
96284,8,1,1901,09:29:50,09:29:50,2,4786,HILLSIDE AVE AT MUNN AVE,40.69817,-74.220693,,0,POINT (-74.220693 40.69817),#0
96285,8,1,1901,09:30:20,09:30:20,3,4799,HILLSIDE AVE AT BOA PL,40.699129,-74.22596,,0,POINT (-74.22596 40.699129),#0
96286,8,1,1901,09:30:43,09:30:43,4,4787,HILLSIDE AVE AT HIGHLAND AVE,40.700808,-74.228842,,0,POINT (-74.228842 40.700808),#0
96287,8,1,1901,09:30:58,09:30:58,5,31564,HILLSIDE AVE AT HIAWATHA AVE,40.702148,-74.231171,,0,POINT (-74.231171 40.702148),#0
96288,8,1,1901,09:32:00,09:32:00,6,4751,BLOY ST AT CHAPMAN ST,40.700759,-74.239021,,0,POINT (-74.239021 40.700759),#0
96289,8,1,1901,09:33:10,09:33:10,7,4775,BLOY ST AT RUTGERS AVE,40.696569,-74.237772,,0,POINT (-74.237772 40.696569),#0
96290,8,1,1901,09:33:46,09:33:46,8,4760,LIBERTY AVE AT BLOY ST,40.694267,-74.236082,,0,POINT (-74.236082 40.694267),#0
96291,8,1,1901,09:34:17,09:34:17,9,4791,LIBERTY AVE AT FITZPATRICK ST,40.692618,-74.236763,,0,POINT (-74.236763 40.692618),#0
96292,8,1,1901,09:34:59,09:34:59,10,4753,LIBERTY AVE AT CONANT ST,40.690028,-74.237111,,0,POINT (-74.237111 40.690028),#0
96293,8,1,1901,09:35:25,09:35:25,11,4731,SALEM RD AT CLIFTON TERRACE,40.689329,-74.239702,,0,POINT (-74.239702 40.689329),#0
96294,8,1,1901,09:36:18,09:36:18,12,4703,SALEM RD AT MORRIS AVE,40.686778,-74.242521,,0,POINT (-74.242521 40.686778),#0
96295,8,1,1901,09:37:18,09:37:18,13,4704,SALEM RD AT HUGUENOT AVE,40.683928,-74.245772,,0,POINT (-74.245772 40.683928),#0
96296,8,1,1901,09:37:55,09:37:55,14,4732,SALEM RD AT MINUTE ARMS RD,40.682599,-74.248582,,0,POINT (-74.248582 40.682599),#0
96297,8,1,1901,09:38:17,09:38:17,15,4705,SALEM RD AT WAYNE TERRACE,40.681629,-74.250102,,0,POINT (-74.250102 40.681629),#0
96298,8,1,1901,09:38:44,09:38:44,16,4706,SALEM RD AT TRINITY PL,40.68041,-74.251812,,0,POINT (-74.251812 40.68041),#0
96299,8,1,1901,09:39:20,09:39:20,17,4707,SALEM RD AT PLYMOUTH RD,40.67861,-74.254352,,0,POINT (-74.254352 40.67861),#0
96300,8,1,1901,09:39:56,09:39:56,18,4733,SALEM RD AT CAMBRIDGE DR,40.678138,-74.257203,,0,POINT (-74.257203 40.678138),#0
96301,8,1,1901,09:40:11,09:40:11,19,4708,SALEM RD AT WHITEWOOD RD,40.678009,-74.258632,,0,POINT (-74.258632 40.678009),#0
96302,8,1,1901,09:40:43,09:40:43,20,4709,SALEM RD AT LIVINGSTON AVE N,40.677689,-74.261363,,0,POINT (-74.261363 40.677689),#0
96303,8,1,1901,09:41:09,09:41:09,21,4734,SALEM RD AT FULTON ST,40.677368,-74.263661,,0,POINT (-74.263661 40.677368),#0
96304,8,1,1901,09:41:36,09:41:36,22,4710,SALEM RD AT MARSHALL AVE,40.677039,-74.266114,,0,POINT (-74.266114 40.677039),#0
96305,8,1,1901,09:42:00,09:42:00,23,35534,FIVE POINTS AT CHESTNUT ST,40.676779,-74.267572,,0,POINT (-74.267572 40.676779),#0
96306,8,1,1901,09:42:53,09:42:53,24,4686,CHESTNUT ST 300'S OF CAROLYN RD,40.673598,-74.266833,,0,POINT (-74.266833 40.673598),#0
96307,8,1,1901,09:43:09,09:43:09,25,4687,CHESTNUT ST AT RUTGERS LANE,40.67274,-74.266631,,0,POINT (-74.266631 40.67274),#0
96308,8,1,1901,09:43:29,09:43:29,26,16676,CHESTNUT ST AT W SUMNER AVE,40.67134,-74.266312,,0,POINT (-74.266312 40.67134),#0
96309,8,1,1901,09:44:39,09:44:39,27,26699,CHESTNUT ST AT WEST LINCOLN AVE,40.667048,-74.26528,,0,POINT (-74.26528 40.667048),#0
96310,8,1,1901,09:45:30,09:45:30,28,26737,CHESTNUT ST AT W GRANT AVE,40.664289,-74.264652,,0,POINT (-74.264652 40.664289),#0
96311,8,1,1901,09:46:13,09:46:13,29,26702,CHESTNUT ST AT WESTFIELD AVE,40.661949,-74.264122,,0,POINT (-74.264122 40.661949),#0
96312,8,1,1901,09:47:00,09:47:00,30,23928,WESTFIELD AVE AT LOCUST ST,40.661299,-74.26739,,0,POINT (-74.26739 40.661299),#0
96313,8,1,1901,09:47:29,09:47:29,31,41013,WESTFIELD AVE AT HAWTHORNE ST,40.660658,-74.272002,,0,POINT (-74.272002 40.660658),#0
96314,8,1,1901,09:48:00,09:48:00,32,23930,WESTFIELD AVE AT FAITOUTE AVE,40.66011,-74.276122,,0,POINT (-74.276122 40.66011),#0
96315,8,1,1901,09:48:44,09:48:44,33,41229,WESTFIELD AVE AT BRIDGE ST,40.659688,-74.279373,,0,POINT (-74.279373 40.659688),#0
96316,8,1,1901,09:49:24,09:49:24,34,43633,WESTFIELD AVE AT VALLEY ROAD,40.659288,-74.282292,,0,POINT (-74.282292 40.659288),#0
96317,8,1,1901,09:51:41,09:51:41,35,41230,NORTH AVE AT JOHN ST,40.657808,-74.29234,,0,POINT (-74.29234 40.657808),#0
96318,8,1,1901,09:53:03,09:53:03,36,16702,NORTH AVE AT FOREST ST,40.657,-74.298311,,0,POINT (-74.298311 40.657),#0
96319,8,1,1901,09:54:00,09:54:00,37,16703,NORTH AVE AT ALDEN ST,40.656408,-74.30268,,0,POINT (-74.30268 40.656408),#0
96320,8,1,1901,09:55:14,09:55:14,38,16641,NORTH AVE AT ORCHARD ST,40.655509,-74.308641,,0,POINT (-74.308641 40.655509),#0
96321,8,1,1901,09:56:22,09:56:22,39,32343,NORTH AVE AT WINSLOW PL,40.654698,-74.314402,,0,POINT (-74.314402 40.654698),#0
96322,8,1,1901,09:57:29,09:57:29,40,16643,NORTH AVE AT OAK ST,40.654007,-74.320292,,0,POINT (-74.320292 40.654007),#0
96323,8,1,1901,09:58:39,09:58:39,41,16645,NORTH AVE AT WALNUT ST,40.653259,-74.325763,,0,POINT (-74.325763 40.653259),#0
96324,8,1,1901,09:59:13,09:59:13,42,16646,NORTH AVE AT MAPLE ST,40.652837,-74.328852,,0,POINT (-74.328852 40.652837),#0
96325,8,1,1901,10:01:04,10:01:04,43,41231,NORTH AVE AT SOUTH EUCLID AVE,40.651618,-74.337942,,0,POINT (-74.337942 40.651618),#0
96326,8,1,1901,10:01:45,10:01:45,44,43860,NORTH AVE AT ST PAUL ST,40.651108,-74.341403,,0,POINT (-74.341403 40.651108),#0
96327,8,1,1901,10:03:00,10:03:00,45,41232,NORTH AVE AT ELM ST,40.650308,-74.347684,,0,POINT (-74.347684 40.650308),#0
96328,8,1,1901,10:03:59,10:03:59,46,16682,SOUTH AVE AT BROAD ST#,40.648058,-74.352661,,0,POINT (-74.352661 40.648058),#0
96329,8,1,1901,10:04:36,10:04:36,47,16683,SOUTH AVE AT TUTTLE PKWY#,40.647488,-74.356631,,0,POINT (-74.356631 40.647488),#0
96330,8,1,1901,10:05:19,10:05:19,48,4446,SOUTH AVE AT DRAKE PL#,40.646779,-74.361773,,0,POINT (-74.361773 40.646779),#0
96331,8,1,1901,10:06:01,10:06:01,49,16684,SOUTH AVE AT JERSEY AVE,40.646178,-74.366321,,0,POINT (-74.366321 40.646178),#0
96332,8,1,1901,10:07:01,10:07:01,50,41233,SOUTH AVE AT HETFIELD AVE,40.645249,-74.372923,,0,POINT (-74.372923 40.645249),#0
96333,8,1,1901,10:07:20,10:07:20,51,41234,SOUTH AVE AT LOCUST AVE,40.644589,-74.374922,,0,POINT (-74.374922 40.644589),#0
96334,8,1,1901,10:08:17,10:08:17,52,41235,SOUTH AVE AT OLD SOUTH AVE. EAST,40.642238,-74.380393,,0,POINT (-74.380393 40.642238),#0
96335,8,1,1901,10:09:00,10:09:00,53,16688,SOUTH AVE AT MARTINE AVE,40.640618,-74.384443,,0,POINT (-74.384443 40.640618),#0
96336,8,1,1901,10:10:22,10:10:22,54,16689,SOUTH AVE AT OLD SOUTH AVE. WEST,40.636629,-74.390353,,0,POINT (-74.390353 40.636629),#0
96337,8,1,1901,10:10:59,10:10:59,55,35322,SOUTH AVE AT TERRILL RD,40.634919,-74.393324,,0,POINT (-74.393324 40.634919),#0
96338,8,1,1901,10:12:15,10:12:15,56,4537,SOUTH AVE AT ATLANTIC ST,40.631299,-74.398764,,0,POINT (-74.398764 40.631299),#0
96339,8,1,1901,10:12:46,10:12:46,57,4541,SOUTH AVE AT LELAND AVE,40.6298,-74.4011,,0,POINT (-74.4011 40.6298),#0
96340,8,1,1901,10:13:07,10:13:07,58,31871,"NETHERWOOD RR STA, SOUTH AVE AT BELVIDERE AVE",40.628589,-74.402961,,0,POINT (-74.402961 40.628589),#0
96341,8,1,1901,10:14:15,10:14:15,59,41236,SOUTH AVE AT CENTRAL ST,40.625569,-74.407623,,0,POINT (-74.407623 40.625569),#0
96342,8,1,1901,10:14:38,10:14:38,60,4571,SOUTH AVE AT BERCKMAN ST,40.624229,-74.409771,,0,POINT (-74.409771 40.624229),#0
96343,8,1,1901,10:15:32,10:15:32,61,4524,EAST 5TH ST AT RICHMOND ST,40.621669,-74.413692,,0,POINT (-74.413692 40.621669),#0
96344,8,1,1901,10:16:17,10:16:17,62,16692,EAST 5TH ST AT ROOSEVELT AVE#,40.619379,-74.416131,,0,POINT (-74.416131 40.619379),#0
96345,8,1,1901,10:17:00,10:17:00,63,4566,WATCHUNG AVE AT E 4TH ST,40.618768,-74.419284,,0,POINT (-74.419284 40.618768),#0
96346,8,1,1901,10:19:00,10:19:00,64,4534,E FRONT ST AT WATCHUNG AVE,40.620009,-74.422502,,0,POINT (-74.422502 40.620009),#0
96347,8,1,1901,10:19:22,10:19:22,65,29992,EAST FRONT ST 75' E OF SOMERSET ST,40.61888,-74.423712,,0,POINT (-74.423712 40.61888),#0
96348,8,1,1901,10:19:55,10:19:55,66,4558,WEST FRONT ST AT MADISON AVE,40.617397,-74.425503,,0,POINT (-74.425503 40.617397),#0
96349,8,1,1901,10:20:08,10:20:08,67,16693,WEST FRONT ST AT GROVE ST,40.616827,-74.42638,,0,POINT (-74.42638 40.616827),#0
96350,8,1,1901,10:20:37,10:20:37,68,4564,WEST FRONT ST AT WASHINGTON AVE,40.615559,-74.428303,,0,POINT (-74.428303 40.615559),#0
96351,8,1,1901,10:21:32,10:21:32,69,4556,WEST FRONT ST AT GERAUD AVE,40.613169,-74.43181,,0,POINT (-74.43181 40.613169),#0
96352,8,1,1901,10:21:59,10:21:59,70,32362,WEST FRONT ST AT WAYNEWOOD PK,40.611769,-74.433401,,0,POINT (-74.433401 40.611769),#0
96353,8,1,1901,10:22:47,10:22:47,71,4563,WEST FRONT ST AT WEST END AVE,40.609157,-74.436393,,0,POINT (-74.436393 40.609157),#0
96354,8,1,1901,10:23:57,10:23:57,72,32363,WEST FRONT ST AT COMPTON ST,40.60642,-74.440552,,0,POINT (-74.440552 40.60642),#0
96355,8,1,1901,10:24:53,10:24:53,73,16697,WEST FRONT ST AT MARINERS PL,40.604008,-74.44429,,0,POINT (-74.44429 40.604008),#0
96356,8,1,1901,10:25:21,10:25:21,74,4555,WEST FRONT ST AT CLINTON AVE,40.602589,-74.446483,,0,POINT (-74.446483 40.602589),#0
96357,8,1,1901,10:26:17,10:26:17,75,32365,WEST FRONT ST AT DEKALB AVE,40.600279,-74.45009,,0,POINT (-74.45009 40.600279),#0
96358,8,1,1901,10:27:18,10:27:18,76,4561,WEST FRONT ST AT ROCK AVE,40.59758,-74.45428,,0,POINT (-74.45428 40.59758),#0
96359,8,1,1901,10:28:28,10:28:28,77,32366,WEST FRONT ST AT JEFFERSON AVE,40.594938,-74.458383,,0,POINT (-74.458383 40.594938),#0
96360,8,1,1901,10:29:00,10:29:00,78,3488,NORTH AVE AT JACKSON AVE,40.593469,-74.460663,,0,POINT (-74.460663 40.593469),#0
105388,9,1,2058,06:00:00,06:00:00,1,16708,MALL NEAR BLOOMINGDALE'S,40.587309,-74.61931,,0,POINT (-74.61931 40.587309),#0
105389,9,1,2058,06:05:00,06:05:00,2,39277,MOUNTAIN AVE AT OAK TER/BROOKSIDE AVE,40.580587,-74.618941,,0,POINT (-74.618941 40.580587),#0
105390,9,1,2058,06:07:32,06:07:32,3,39278,WEST END AVE AT MOUNTAIN AVE,40.570758,-74.619632,,0,POINT (-74.619632 40.570758),#0
105391,9,1,2058,06:08:08,06:08:08,4,39283,W MAIN ST AT S DOUGHTY AVE,40.569859,-74.617601,,0,POINT (-74.617601 40.569859),#0
105392,9,1,2058,06:09:06,06:09:06,5,39279,W MAIN ST AT DIVISION ST,40.5685,-74.613083,,0,POINT (-74.613083 40.5685),#0
105393,9,1,2058,06:10:00,06:10:00,6,39280,MAIN ST AT GROVE ST,40.567138,-74.609103,,0,POINT (-74.609103 40.567138),#0
105394,9,1,2058,06:10:23,06:10:23,7,39281,E MAIN ST AT MEADOW ST,40.566379,-74.606253,,0,POINT (-74.606253 40.566379),#0
105395,9,1,2058,06:11:24,06:11:24,8,25394,N GASTON AVE AT E CLIFF ST,40.569289,-74.602492,,0,POINT (-74.602492 40.569289),#0
105396,9,1,2058,06:11:48,06:11:48,9,36854,N GASTON AVE AT UNION AVE,40.571418,-74.60166,,0,POINT (-74.60166 40.571418),#0
105397,9,1,2058,06:12:45,06:12:45,10,4306,UNION AVE AT REHILL AVE,40.571059,-74.595161,,0,POINT (-74.595161 40.571059),#0
105398,9,1,2058,06:13:59,06:13:59,11,25306,UNION AVE AT ADAMSVILLE RD#,40.570498,-74.586441,,0,POINT (-74.586441 40.570498),#0
105399,9,1,2058,06:15:00,06:15:00,12,25307,UNION AVE AT MORGAN PL,40.56975,-74.579193,,0,POINT (-74.579193 40.56975),#0
105400,9,1,2058,06:15:34,06:15:34,13,25308,UNION AVE AT FINDERNE AVE,40.569319,-74.575371,,0,POINT (-74.575371 40.569319),#0
105401,9,1,2058,06:16:06,06:16:06,14,25309,UNION AVE AT PEARL ST,40.568938,-74.571293,,0,POINT (-74.571293 40.568938),#0
105402,9,1,2058,06:17:28,06:17:28,15,25310,UNION AVE AT FOOTHILL RD,40.568018,-74.561951,,0,POINT (-74.561951 40.568018),#0
105403,9,1,2058,06:19:00,06:19:00,16,4298,UNION AVE AT TEA ST,40.567968,-74.551303,,0,POINT (-74.551303 40.567968),#0
105404,9,1,2058,06:19:28,06:19:28,17,4295,UNION AVE AT THOMPSON ST,40.56784,-74.548082,,0,POINT (-74.548082 40.56784),#0
105405,9,1,2058,06:20:19,06:20:19,18,4299,UNION AVE AT WASHINGTON ST,40.56747,-74.542171,,0,POINT (-74.542171 40.56747),#0
105406,9,1,2058,06:21:10,06:21:10,19,4296,UNION AVE AT WINSOR ST,40.566949,-74.536341,,0,POINT (-74.536341 40.566949),#0
105407,9,1,2058,06:21:56,06:21:56,20,4301,UNION AVE AT MOUNTAIN AVE,40.566458,-74.530803,,0,POINT (-74.530803 40.566458),#0
105408,9,1,2058,06:22:21,06:22:21,21,42468,UNION AVE AT EAST ST,40.566269,-74.52803,,0,POINT (-74.52803 40.566269),#0
105409,9,1,2058,06:23:32,06:23:32,22,3371,UNION AVE AT RARITAN AVE,40.567938,-74.519623,,0,POINT (-74.519623 40.567938),#0
105410,9,1,2058,06:24:46,06:24:46,23,3373,UNION AVE AT HARRIS AVE,40.57078,-74.512641,,0,POINT (-74.512641 40.57078),#0
105411,9,1,2058,06:26:24,06:26:24,24,3369,UNION AVE AT GREENBROOK RD,40.578058,-74.506231,,0,POINT (-74.506231 40.578058),#0
105412,9,1,2058,06:26:52,06:26:52,25,42613,BOUNDBROOK RD AT MARLBOROUGH AVE,40.579299,-74.50338,,0,POINT (-74.50338 40.579299),#0
105413,9,1,2058,06:27:12,06:27:12,26,3368,BOUNDBROOK RD AT MOUNTAIN AVE,40.580089,-74.501351,,0,POINT (-74.501351 40.580089),#0
105414,9,1,2058,06:28:18,06:28:18,27,3391,BOUNDBROOK RD AT 4TH ST,40.580998,-74.494101,,0,POINT (-74.494101 40.580998),#0
105415,9,1,2058,06:28:40,06:28:40,28,3375,BOUNDBROOK RD AT 1ST ST,40.581678,-74.491514,,0,POINT (-74.491514 40.581678),#0
105416,9,1,2058,06:29:02,06:29:02,29,3376,BOUNDBROOK RD AT S LINCOLN AVE,40.582327,-74.48907,,0,POINT (-74.48907 40.582327),#0
105417,9,1,2058,06:29:46,06:29:46,30,3377,BOUNDBROOK RD AT CLAY AVE,40.583769,-74.484292,,0,POINT (-74.484292 40.583769),#0
105418,9,1,2058,06:30:31,06:30:31,31,3379,BOUNDBROOK RD AT HALLOCK AVE,40.585229,-74.478921,,0,POINT (-74.478921 40.585229),#0
105419,9,1,2058,06:30:51,06:30:51,32,3380,BOUNDBROOK RD AT GROVE AVE,40.58566,-74.477262,,0,POINT (-74.477262 40.58566),#0
105420,9,1,2058,06:31:10,06:31:10,33,3372,BOUNDBROOK RD AT SMALLEY AVE,40.586649,-74.475231,,0,POINT (-74.475231 40.586649),#0
105421,9,1,2058,06:31:41,06:31:41,34,3489,BOUNDBROOK RD AT SANFORD AVE,40.58777,-74.472211,,0,POINT (-74.472211 40.58777),#0
105422,9,1,2058,06:32:24,06:32:24,35,3490,BOUNDBROOK RD AT MADISON AVE,40.588559,-74.467342,,0,POINT (-74.467342 40.588559),#0
105423,9,1,2058,06:33:00,06:33:00,36,3494,GROVE ST AT PROSPECT AVE,40.588378,-74.463962,,0,POINT (-74.463962 40.588378),#0
105424,9,1,2058,06:33:59,06:33:59,37,3492,NEW MARKET RD AT WALNUT ST,40.58612,-74.460671,,0,POINT (-74.460671 40.58612),#0
105425,9,1,2058,06:35:03,06:35:03,38,3496,NEW MARKET RD AT CENTER ST,40.58113,-74.459712,,0,POINT (-74.459712 40.58113),#0
105426,9,1,2058,06:35:15,06:35:15,39,3497,VAIL AVE AT VALMERE AVE,40.581168,-74.457944,,0,POINT (-74.457944 40.581168),#0
105427,9,1,2058,06:35:43,06:35:43,40,3507,VAIL AVE AT S WASHINGTON AVE,40.581598,-74.455531,,0,POINT (-74.455531 40.581598),#0
105428,9,1,2058,06:36:57,06:36:57,41,43066,W 7TH ST AT MANSFIELD RD,40.586008,-74.450222,,0,POINT (-74.450222 40.586008),#0
105429,9,1,2058,06:37:22,06:37:22,42,3500,W 7TH ST AT WALNUT ST,40.587479,-74.448491,,0,POINT (-74.448491 40.587479),#0
105430,9,1,2058,06:38:05,06:38:05,43,3501,W 7TH ST AT ROCK AVE,40.590069,-74.445461,,0,POINT (-74.445461 40.590069),#0
105431,9,1,2058,06:39:09,06:39:09,44,3502,W 7TH ST AT PLEASANT AVE,40.593908,-74.441071,,0,POINT (-74.441071 40.593908),#0
105432,9,1,2058,06:39:25,06:39:25,45,3482,W 7TH ST AT CAMBRIDGE ST,40.595209,-74.439572,,0,POINT (-74.439572 40.595209),#0
105433,9,1,2058,06:40:00,06:40:00,46,41032,W 7TH ST AT CLINTON AVE,40.597297,-74.437172,,0,POINT (-74.437172 40.597297),#0
105434,9,1,2058,06:41:02,06:41:02,47,25532,W 7TH ST AT ELAINE CT,40.59935,-74.43492,,0,POINT (-74.43492 40.59935),#0
105435,9,1,2058,06:41:48,06:41:48,48,25533,W 7TH ST AT MONROE AVE,40.601087,-74.433122,,0,POINT (-74.433122 40.601087),#0
105436,9,1,2058,06:43:17,06:43:17,49,4549,W 7TH ST AT GRANT AVE,40.604699,-74.429281,,0,POINT (-74.429281 40.604699),#0
105437,9,1,2058,06:44:09,06:44:09,50,25534,W 7TH ST AT SPOONER AVE,40.606307,-74.427592,,0,POINT (-74.427592 40.606307),#0
105438,9,1,2058,06:44:48,06:44:48,51,41033,W 7TH ST AT JOHN ST,40.60779,-74.426022,,0,POINT (-74.426022 40.60779),#0
105439,9,1,2058,06:45:24,06:45:24,52,4573,W 7TH ST AT PLAINFIELD AVE,40.608968,-74.424223,,0,POINT (-74.424223 40.608968),#0
105440,9,1,2058,06:46:09,06:46:09,53,25536,W 7TH ST AT LIBERTY ST,40.610508,-74.422353,,0,POINT (-74.422353 40.610508),#0
105441,9,1,2058,06:47:00,06:47:00,54,4547,W 7TH ST AT CENTRAL AVE,40.612659,-74.419873,,0,POINT (-74.419873 40.612659),#0
105442,9,1,2058,06:47:38,06:47:38,55,4545,W 7TH ST AT ARLINGTON AVE,40.613808,-74.418543,,0,POINT (-74.418543 40.613808),#0
105443,9,1,2058,06:48:08,06:48:08,56,4551,W 7TH ST AT PARK AVE,40.614819,-74.417363,,0,POINT (-74.417363 40.614819),#0
105444,9,1,2058,06:49:15,06:49:15,57,29991,WATCHUNG AVE AT E 6TH ST,40.617397,-74.416362,,0,POINT (-74.416362 40.617397),#0
105445,9,1,2058,06:49:33,06:49:33,58,4568,WATCHUNG AVE AT E 5TH ST,40.617828,-74.417431,,0,POINT (-74.417431 40.617828),#0
105446,9,1,2058,06:50:10,06:50:10,59,4566,WATCHUNG AVE AT E 4TH ST,40.618768,-74.419284,,0,POINT (-74.419284 40.618768),#0
105447,9,1,2058,06:51:00,06:51:00,60,4569,WATCHUNG AVE AT E FRONT ST,40.620099,-74.421942,,0,POINT (-74.421942 40.620099),#0
105448,9,1,2058,06:52:39,06:52:39,61,13987,WATCHUNG AVE AT JACKSON AVE,40.623168,-74.427722,,0,POINT (-74.427722 40.623168),#0
105449,9,1,2058,06:53:24,06:53:24,62,25539,WATCHUNG AVE AT GRANDVIEW AVE,40.624719,-74.430321,,0,POINT (-74.430321 40.624719),#0
105450,9,1,2058,06:54:00,06:54:00,63,13990,MOUNTAIN AVE AT WATCHUNG AVE,40.626237,-74.432141,,0,POINT (-74.432141 40.626237),#0
105451,9,1,2058,06:55:11,06:55:11,64,13992,MOUNTAIN AVE AT NORWOOD AVE,40.630088,-74.427741,,0,POINT (-74.427741 40.630088),#0
105452,9,1,2058,06:55:48,06:55:48,65,13993,MOUNTAIN AVE AT ONEIDA AVE,40.632178,-74.4253,,0,POINT (-74.4253 40.632178),#0
105453,9,1,2058,06:56:26,06:56:26,66,25545,MOUNTAIN AVE AT FARRAGUT RD,40.63439,-74.422703,,0,POINT (-74.422703 40.63439),#0
105454,9,1,2058,06:58:02,06:58:02,67,13996,MOUNTAIN AVE AT GRAYBAR DR,40.640158,-74.416092,,0,POINT (-74.416092 40.640158),#0
105455,9,1,2058,06:59:36,06:59:36,68,25548,TERRILL RD at RT-22 #,40.644827,-74.409471,,0,POINT (-74.409471 40.644827),#0
105456,9,1,2058,07:00:20,07:00:20,69,4311,FRONT ST AT TERRILL RD,40.642835,-74.405997,,0,POINT (-74.405997 40.642835),#0
105457,9,1,2058,07:01:04,07:01:04,70,41034,FRONT ST AT GRANT AVE,40.645589,-74.403463,,0,POINT (-74.403463 40.645589),#0
105458,9,1,2058,07:01:43,07:01:43,71,25551,FRONT ST AT MYRTLE AVE,40.648108,-74.40101,,0,POINT (-74.40101 40.648108),#0
105459,9,1,2058,07:02:14,07:02:14,72,16737,FRONT ST AT SENGER PL,40.650338,-74.398852,,0,POINT (-74.398852 40.650338),#0
105460,9,1,2058,07:02:46,07:02:46,73,25552,PARK AVE AT GRAND ST,40.651938,-74.399952,,0,POINT (-74.399952 40.651938),#0
105461,9,1,2058,07:03:00,07:03:00,74,40128,MOUNTAIN AVE AT PARK AVE,40.652928,-74.400642,,0,POINT (-74.400642 40.652928),#0
105462,9,1,2058,07:03:33,07:03:33,75,25555,MOUNTAIN AVE AT MONTAGUE AVE,40.655909,-74.39752,,0,POINT (-74.39752 40.655909),#0
105463,9,1,2058,07:03:55,07:03:55,76,25556,MOUNTAIN AVE AT WESTFIELD RD,40.658359,-74.394923,,0,POINT (-74.394923 40.658359),#0
105464,9,1,2058,07:04:44,07:04:44,77,25558,MOUNTAIN AVE AT WILLIAM ST,40.662108,-74.388862,,0,POINT (-74.388862 40.662108),#0
105465,9,1,2058,07:05:03,07:05:03,78,25559,MOUNTAIN AVE AT JERUSALEM RD,40.663508,-74.386441,,0,POINT (-74.386441 40.663508),#0
105466,9,1,2058,07:05:17,07:05:17,79,16966,MOUNTAIN AVE AT ACACIA RD,40.664919,-74.384111,,0,POINT (-74.384111 40.664919),#0
105467,9,1,2058,07:05:34,07:05:34,80,41035,MOUNTAIN AVE AT ROBERTS LN,40.665928,-74.382373,,0,POINT (-74.382373 40.665928),#0
105468,9,1,2058,07:07:00,07:07:00,81,8321,US-22 & LAWRENCE AVE,40.66909,-74.368652,,0,POINT (-74.368652 40.66909),#0
105469,9,1,2058,07:08:00,07:08:00,82,4319,RT-22 AT NEW PROVIDENCE RD,40.672079,-74.356232,,0,POINT (-74.356232 40.672079),#0
105470,9,1,2058,07:11:43,07:11:43,83,39398,MOUNTAIN AVE AT RT 22,40.68637,-74.335593,,0,POINT (-74.335593 40.68637),#0
105471,9,1,2058,07:12:03,07:12:03,84,39399,MOUNTAIN AVE AT GREGORY RD,40.68782,-74.334153,,0,POINT (-74.334153 40.68782),#0
105472,9,1,2058,07:12:37,07:12:37,85,43017,MOUNTAIN AVE AT MAPES AVE,40.690719,-74.331263,,0,POINT (-74.331263 40.690719),#0
105473,9,1,2058,07:13:26,07:13:26,86,25496,MOUNTAIN AVE 300'N OF KIMBERLY CT,40.694199,-74.327753,,0,POINT (-74.327753 40.694199),#0
105474,9,1,2058,07:13:54,07:13:54,87,25497,MOUNTAIN AVE AT NELSON PL,40.696268,-74.325671,,0,POINT (-74.325671 40.696268),#0
105475,9,1,2058,07:14:30,07:14:30,88,25498,MOUNTAIN AVE AT RICHLAND DR,40.69911,-74.322831,,0,POINT (-74.322831 40.69911),#0
105476,9,1,2058,07:15:06,07:15:06,89,16778,MOUNTAIN AVE AT SHUNPIKE RD,40.702198,-74.319754,,0,POINT (-74.319754 40.702198),#0
105477,9,1,2058,07:15:31,07:15:31,90,16752,MOUNTAIN AVE AT S SPRINGFIELD AVE,40.703839,-74.318073,,0,POINT (-74.318073 40.703839),#0
105478,9,1,2058,07:15:56,07:15:56,91,25526,MOUNTAIN AVE AT CLINTON AVE,40.705818,-74.316273,,0,POINT (-74.316273 40.705818),#0
105479,9,1,2058,07:16:22,07:16:22,92,25546,MOUNTAIN AVE 114'N OF CALDWELL PL,40.707799,-74.314203,,0,POINT (-74.314203 40.707799),#0
105480,9,1,2058,07:17:00,07:17:00,93,4577,MOUNTAIN AVE AT MORRIS AVE,40.710758,-74.31127,,0,POINT (-74.31127 40.710758),#0
105481,9,1,2058,07:17:43,07:17:43,94,40474,MORRIS AVE AT MEISEL AVE,40.710408,-74.308154,,0,POINT (-74.308154 40.710408),#0
105482,9,1,2058,07:18:15,07:18:15,95,25510,MORRIS AVE AT S MAPLE AVE,40.709369,-74.30569,,0,POINT (-74.30569 40.709369),#0
105483,9,1,2058,07:18:53,07:18:53,96,25511,MORRIS AVE AT BATTLEHILL AVE,40.708459,-74.303403,,0,POINT (-74.303403 40.708459),#0
105484,9,1,2058,07:20:21,07:20:21,97,4621,MORRIS AVE. AT ALVIN PL.,40.705598,-74.297182,,0,POINT (-74.297182 40.705598),#0
105485,9,1,2058,07:21:17,07:21:17,98,40200,MORRIS AVE AT CREGER AVE,40.703847,-74.293471,,0,POINT (-74.293471 40.703847),#0
105486,9,1,2058,07:22:06,07:22:06,99,40993,MORRIS AVE AT SPRUCE ST,40.702477,-74.289981,,0,POINT (-74.289981 40.702477),#0
105487,9,1,2058,07:22:26,07:22:26,100,4639,MORRIS AVE AT SPRUCE ST,40.702088,-74.288951,,0,POINT (-74.288951 40.702088),#0
105488,9,1,2058,07:23:04,07:23:04,101,4730,MORRIS AVE 110' W OF APGAR CT,40.701019,-74.286192,,0,POINT (-74.286192 40.701019),#0
105489,9,1,2058,07:24:05,07:24:05,102,4744,MORRIS AVE AT COMMERCE AVE,40.699027,-74.281624,,0,POINT (-74.281624 40.699027),#0
105490,9,1,2058,07:24:54,07:24:54,103,4641,MORRIS AVE AT WOOLLEY AVE,40.698268,-74.278363,,0,POINT (-74.278363 40.698268),#0
105491,9,1,2058,07:25:25,07:25:25,104,4642,MORRIS AVE AT CALDWELL AVE,40.697739,-74.275993,,0,POINT (-74.275993 40.697739),#0
105492,9,1,2058,07:26:03,07:26:03,105,4622,MORRIS AVE AT JOHNSON PL,40.697128,-74.273151,,0,POINT (-74.273151 40.697128),#0
105493,9,1,2058,07:27:00,07:27:00,106,4643,MORRIS AVE AT STUYVESANT AVE,40.696049,-74.268831,,0,POINT (-74.268831 40.696049),#0
105494,9,1,2058,07:27:36,07:27:36,107,4613,MORRIS AVE AT ADAMS AVE,40.695298,-74.265531,,0,POINT (-74.265531 40.695298),#0
105495,9,1,2058,07:30:01,07:30:01,108,15958,US-22 765'W OF VAUXHALL RD,40.69669,-74.254072,,0,POINT (-74.254072 40.69669),#0
105496,9,1,2058,07:33:00,07:33:00,109,4779,LONG AVE AT BLOY ST,40.698698,-74.23804,,0,POINT (-74.23804 40.698698),#0
105497,9,1,2058,07:33:45,07:33:45,110,4758,LIBERTY AVE AT FLORENCE AVE,40.700839,-74.229861,,0,POINT (-74.229861 40.700839),#0
105498,9,1,2058,07:33:59,07:33:59,111,4756,HILLSIDE AVE AT HIGHLAND AVE,40.700099,-74.227801,,0,POINT (-74.227801 40.700099),#0
105499,9,1,2058,07:34:14,07:34:14,112,4784,HILLSIDE AVE AT BOA PL,40.698688,-74.225372,,0,POINT (-74.225372 40.698688),#0
105500,9,1,2058,07:34:37,07:34:37,113,4785,HILLSIDE AVE AT MUNN AVE,40.698087,-74.22069,,0,POINT (-74.22069 40.698087),#0
105501,9,1,2058,08:00:44,08:00:44,114,43310,PORT AUTHORITY DROP OFF,40.756707,-73.992134,,0,POINT (-73.992134 40.756707),#0
105502,9,1,2058,08:01:00,08:01:00,115,43274,PORT AUTHORITY BUS TERMINAL,40.756209,-73.991001,,0,POINT (-73.991001 40.756209),#0
127652,10,3,2368,22:30:00,22:30:00,1,3511,PORT AUTHORITY BUS TERMINAL,40.756367,-73.990753,,0,POINT (-73.990753 40.756367),#0
127653,10,3,2368,23:02:00,23:02:00,2,37233,JERSEY GARDENS - MAIN ENTRANCE,40.661798,-74.17093,,0,POINT (-74.17093 40.661798),#0
127654,10,3,2368,23:13:00,23:13:00,3,38767,BAYWAY AVE AT MCKINLEY ST,40.644819,-74.212583,,0,POINT (-74.212583 40.644819),#0
127655,10,3,2368,23:13:09,23:13:09,4,4332,BAYWAY AVE AT POLONIA AVE,40.645299,-74.213271,,0,POINT (-74.213271 40.645299),#0
127656,10,3,2368,23:13:41,23:13:41,5,4327,BAYWAY AVE AT CLARKSON AVE,40.646028,-74.214362,,0,POINT (-74.214362 40.646028),#0
127657,10,3,2368,23:14:03,23:14:03,6,4330,BAYWAY AVE AT MAPLE AVE,40.64665,-74.215233,,0,POINT (-74.215233 40.64665),#0
127658,10,3,2368,23:14:47,23:14:47,7,38768,BAYWAY AVE AT BONNETT ST,40.647919,-74.217102,,0,POINT (-74.217102 40.647919),#0
127659,10,3,2368,23:15:34,23:15:34,8,4329,BAYWAY AVE AT GRIER AVE,40.6493,-74.219103,,0,POINT (-74.219103 40.6493),#0
127660,10,3,2368,23:17:28,23:17:28,9,4393,SOUTH ELMORA AVE AT LIDGERWOOD AVE,40.65218,-74.223263,,0,POINT (-74.223263 40.65218),#0
127661,10,3,2368,23:18:08,23:18:08,10,4390,SOUTH ELMORA AVE AT ERICO AVE,40.653429,-74.225093,,0,POINT (-74.225093 40.653429),#0
127662,10,3,2368,23:18:50,23:18:50,11,4391,SOUTH ELMORA AVE AT FAY AVE,40.654599,-74.226743,,0,POINT (-74.226743 40.654599),#0
127663,10,3,2368,23:19:16,23:19:16,12,4388,SOUTH ELMORA AVE AT CEDAR AVE,40.655408,-74.227912,,0,POINT (-74.227912 40.655408),#0
127664,10,3,2368,23:20:00,23:20:00,13,4428,RAHWAY AVE AT S ELMORA AVE,40.656219,-74.230053,,0,POINT (-74.230053 40.656219),#0
127665,10,3,2368,23:20:25,23:20:25,14,4429,RAHWAY AVE AT BELLEVUE ST,40.655279,-74.23202,,0,POINT (-74.23202 40.655279),#0
127666,10,3,2368,23:20:47,23:20:47,15,4597,SAINT GEORGES AVE AT HAGEL AVE,40.654249,-74.233923,,0,POINT (-74.233923 40.654249),#0
127667,10,3,2368,23:21:12,23:21:12,16,35321,SAINT GEORGES AVE AT PARK AVE,40.652698,-74.236442,,0,POINT (-74.236442 40.652698),#0
127668,10,3,2368,23:21:39,23:21:39,17,4599,SAINT GEORGES AVE AT ALEXANDER AVE,40.651308,-74.238623,,0,POINT (-74.238623 40.651308),#0
127669,10,3,2368,23:22:18,23:22:18,18,4600,SAINT GEORGES AVE AT CAROLYN TERRACE,40.649719,-74.241871,,0,POINT (-74.241871 40.649719),#0
127670,10,3,2368,23:22:38,23:22:38,19,4601,SAINT GEORGES AVE AT THOMPSON AVE,40.649017,-74.24394,,0,POINT (-74.24394 40.649017),#0
127671,10,3,2368,23:23:02,23:23:02,20,4602,SAINT GEORGES AVE AT DRAKE AVE,40.64819,-74.246422,,0,POINT (-74.246422 40.64819),#0
127672,10,3,2368,23:23:36,23:23:36,21,4603,SAINT GEORGES AVE AT CHANDLER AVE,40.64719,-74.249043,,0,POINT (-74.249043 40.64719),#0
127673,10,3,2368,23:23:58,23:23:58,22,4604,SAINT GEORGES AVE AT FRANK ST.,40.64585,-74.250411,,0,POINT (-74.250411 40.64585),#0
127674,10,3,2368,23:24:58,23:24:58,23,4607,SAINT GEORGES AVE AT HOME TERRACE,40.644288,-74.256313,,0,POINT (-74.256313 40.644288),#0
127675,10,3,2368,23:25:14,23:25:14,24,4605,SAINT GEORGES AVE AT VICTORY ST,40.643748,-74.258123,,0,POINT (-74.258123 40.643748),#0
127676,10,3,2368,23:25:37,23:25:37,25,4608,SAINT GEORGES AVE AT CRESCENT AVE,40.642487,-74.25984,,0,POINT (-74.25984 40.642487),#0
127677,10,3,2368,23:25:51,23:25:51,26,4606,SAINT GEORGES AVE AT WALNUT ST,40.641339,-74.260873,,0,POINT (-74.260873 40.641339),#0
127678,10,3,2368,23:26:23,23:26:23,27,43699,SAINT GEORGES AVE AT BALDWIN AVE,40.639478,-74.26244,,0,POINT (-74.26244 40.639478),#0
127679,10,3,2368,23:27:00,23:27:00,28,4487,ST GEORGES AVE AT WOOD AVE,40.636919,-74.264761,,0,POINT (-74.264761 40.636919),#0
127680,10,3,2368,23:27:20,23:27:20,29,4488,SAINT GEORGES AVE AT SUMMIT TERRACE,40.635198,-74.26633,,0,POINT (-74.26633 40.635198),#0
127681,10,3,2368,23:27:36,23:27:36,30,4489,SAINT GEORGES AVE AT DEWITT TERRACE,40.633609,-74.267952,,0,POINT (-74.267952 40.633609),#0
127682,10,3,2368,23:28:01,23:28:01,31,16873,SAINT GEORGES AVE 300' N OF COLUMBIA PL#,40.631449,-74.269883,,0,POINT (-74.269883 40.631449),#0
127683,10,3,2368,23:28:16,23:28:16,32,4490,SAINT GEORGES AVE AT HOLLYWOOD RD,40.630038,-74.270712,,0,POINT (-74.270712 40.630038),#0
127684,10,3,2368,23:28:35,23:28:35,33,4491,SAINT GEORGES AVE AT STILES ST,40.627978,-74.27206,,0,POINT (-74.27206 40.627978),#0
127685,10,3,2368,23:29:02,23:29:02,34,32775,SAINT GEORGES AVE AT STUART PL,40.625478,-74.274961,,0,POINT (-74.274961 40.625478),#0
127686,10,3,2368,23:29:21,23:29:21,35,4809,SAINT GEORGES AVE AT ROSS ST,40.62424,-74.276681,,0,POINT (-74.276681 40.62424),#0
127687,10,3,2368,23:29:41,23:29:41,36,39177,SAINT GEORGES AVE AT APGAR TERRACE,40.622629,-74.278681,,0,POINT (-74.278681 40.622629),#0
127688,10,3,2368,23:30:04,23:30:04,37,43664,SAINT GEORGES AVE AT BILLY CT.#,40.620636,-74.280891,,0,POINT (-74.280891 40.620636),#0
127689,10,3,2368,23:30:35,23:30:35,38,4812,SAINT GEORGES AVE AT HARRISON ST,40.61771,-74.283832,,0,POINT (-74.283832 40.61771),#0
127690,10,3,2368,23:30:57,23:30:57,39,4817,SAINT GEORGES AVE AT WESTFIELD AVE,40.615879,-74.28539,,0,POINT (-74.28539 40.615879),#0
127691,10,3,2368,23:31:54,23:31:54,40,4813,SAINT GEORGES AVE AT CENTRAL AVE,40.609248,-74.286891,,0,POINT (-74.286891 40.609248),#0
127692,10,3,2368,23:32:33,23:32:33,41,4814,SAINT GEORGES AVE AT WEST HAZELWOOD AVE,40.605507,-74.289023,,0,POINT (-74.289023 40.605507),#0
127693,10,3,2368,23:32:50,23:32:50,42,4815,SAINT GEORGES AVE 250' N OF WEST LAKE AVE.,40.603389,-74.290092,,0,POINT (-74.290092 40.603389),#0
127694,10,3,2368,23:33:31,23:33:31,43,4801,SAINT GEORGES AVE AT WEST INMAN AVE,40.59915,-74.290384,,0,POINT (-74.290384 40.59915),#0
127695,10,3,2368,23:34:00,23:34:00,44,4816,ST GEORGES AVE AT MURRAY ST,40.596089,-74.290614,,0,POINT (-74.290614 40.596089),#0
127696,10,3,2368,23:34:55,23:34:55,45,41251,SAINT GEORGES AVE 635' N OF PEACH ST,40.591058,-74.290833,,0,POINT (-74.290833 40.591058),#0
127697,10,3,2368,23:35:30,23:35:30,46,41252,SAINT GEORGES AVE AT RONALD DR,40.588159,-74.291263,,0,POINT (-74.291263 40.588159),#0
127698,10,3,2368,23:36:14,23:36:14,47,16877,SAINT GEORGES AVE AT CHAIN O'HILLS RD,40.584358,-74.29295,,0,POINT (-74.29295 40.584358),#0
127699,10,3,2368,23:36:50,23:36:50,48,16878,SAINT GEORGES AVE AT VALLEY RD#,40.581059,-74.293821,,0,POINT (-74.293821 40.581059),#0
127700,10,3,2368,23:38:00,23:38:00,49,16879,ST GEORGES AVE AT N WASHINGTON AVE,40.574578,-74.29441,,0,POINT (-74.29441 40.574578),#0
128963,11,1,2395,07:00:00,07:00:00,1,3511,PORT AUTHORITY BUS TERMINAL,40.756367,-73.990753,,0,POINT (-73.990753 40.756367),#0
128964,11,1,2395,07:26:00,07:26:00,2,3352,ROOSEVELT AVE AT HARRISON AVE,40.590858,-74.228622,,0,POINT (-74.228622 40.590858),#0
128965,11,1,2395,07:27:27,07:27:27,3,3350,ROOSEVELT AVE AT EDGAR ST,40.585679,-74.225063,,0,POINT (-74.225063 40.585679),#0
128966,11,1,2395,07:27:51,07:27:51,4,3353,ROOSEVELT AVE AT HAYWARD AVE,40.584489,-74.222744,,0,POINT (-74.222744 40.584489),#0
128967,11,1,2395,07:28:13,07:28:13,5,3355,ROOSEVELT AVE AT LEICK AVE,40.584128,-74.221051,,0,POINT (-74.221051 40.584128),#0
128968,11,1,2395,07:28:42,07:28:42,6,3358,ROOSEVELT AVE 50' W OF PERSHING AVE,40.583528,-74.21838,,0,POINT (-74.21838 40.583528),#0
128969,11,1,2395,07:29:16,07:29:16,7,3346,PERSHING AVE AT RANDOLPH ST,40.581648,-74.218573,,0,POINT (-74.218573 40.581648),#0
128970,11,1,2395,07:29:32,07:29:32,8,3344,PERSHING AVE 60' S OF HARRIS ST,40.580459,-74.219003,,0,POINT (-74.219003 40.580459),#0
128971,11,1,2395,07:30:07,07:30:07,9,3348,PERSHING AVE AT ROMANOWSKI ST,40.578458,-74.220672,,0,POINT (-74.220672 40.578458),#0
128972,11,1,2395,07:30:36,07:30:36,10,3349,WASHINGTON AVE AT PERSHING AVE,40.57648,-74.222042,,0,POINT (-74.222042 40.57648),#0
128973,11,1,2395,07:30:59,07:30:59,11,3342,WASHINGTON AVE AT HIGH ST,40.57571,-74.220632,,0,POINT (-74.220632 40.57571),#0
128974,11,1,2395,07:31:56,07:31:56,12,3340,ROOSEVELT AVE AT CARTERET AVE,40.573128,-74.221632,,0,POINT (-74.221632 40.573128),#0
128975,11,1,2395,07:32:26,07:32:26,13,3359,ROOSEVELT AVE AT TERMINAL AVE,40.57192,-74.223931,,0,POINT (-74.223931 40.57192),#0
128976,11,1,2395,07:33:26,07:33:26,14,43309,ROOSEVELT AVE AT ARTHUR AVE,40.57092,-74.229522,,0,POINT (-74.229522 40.57092),#0
128977,11,1,2395,07:34:00,07:34:00,15,3318,PORT READING AVE AT HENRY ST,40.57038,-74.232753,,0,POINT (-74.232753 40.57038),#0
128978,11,1,2395,07:34:28,07:34:28,16,3334,PORT READING AVE AT DANIEL ST,40.570298,-74.23635,,0,POINT (-74.23635 40.570298),#0
128979,11,1,2395,07:34:58,07:34:58,17,3329,PORT READING AVE AT VERNON WAY,40.570037,-74.239643,,0,POINT (-74.239643 40.570037),#0
128980,11,1,2395,07:35:26,07:35:26,18,3330,PORT READING AVE AT TURNER ST,40.56958,-74.242122,,0,POINT (-74.242122 40.56958),#0
128981,11,1,2395,07:35:59,07:35:59,19,3331,PORT READING AVE AT EAST TAPPEN ST,40.568648,-74.24576,,0,POINT (-74.24576 40.568648),#0
128982,11,1,2395,07:37:32,07:37:32,20,16904,PORT READING AVE AT MILOS WAY,40.564858,-74.255421,,0,POINT (-74.255421 40.564858),#0
128983,11,1,2395,07:38:04,07:38:04,21,3336,PORT READING AVE AT OLD RD,40.56325,-74.257713,,0,POINT (-74.257713 40.56325),#0
128984,11,1,2395,07:39:23,07:39:23,22,3332,PORT READING AVE 150' W OF SEVENTH AVE.,40.562998,-74.266311,,0,POINT (-74.266311 40.562998),#0
128985,11,1,2395,07:39:58,07:39:58,23,3333,PORT READING AVE AT TRINITY LN/LEWIS ST,40.562767,-74.270093,,0,POINT (-74.270093 40.562767),#0
128986,11,1,2395,07:40:41,07:40:41,24,3339,RAHWAY AVE AT PORT READING AVE,40.560978,-74.274312,,0,POINT (-74.274312 40.560978),#0
128987,11,1,2395,07:40:53,07:40:53,25,41253,RAHWAY AVE AT CRAMPTON AVE,40.559948,-74.27474,,0,POINT (-74.27474 40.559948),#0
128988,11,1,2395,07:42:00,07:42:00,26,32799,MAIN ST AT PEARL ST,40.554999,-74.277254,,0,POINT (-74.277254 40.554999),#0
128989,11,1,2395,07:42:09,07:42:09,27,3328,MAIN ST AT PEARL ST,40.55464,-74.27827,,0,POINT (-74.27827 40.55464),#0
128990,11,1,2395,07:42:25,07:42:25,28,3322,MAIN ST AT SCHOOL ST,40.55413,-74.28032,,0,POINT (-74.28032 40.55413),#0
128991,11,1,2395,07:42:49,07:42:49,29,3312,AMBOY AVE AT MAIN ST,40.553089,-74.282003,,0,POINT (-74.282003 40.553089),#0
128992,11,1,2395,07:43:08,07:43:08,30,3338,AMBOY AVE AT BERGEN ST,40.55142,-74.280663,,0,POINT (-74.280663 40.55142),#0
128993,11,1,2395,07:43:32,07:43:32,31,16905,AMBOY AVE AT ALBERT ST,40.54971,-74.279431,,0,POINT (-74.279431 40.54971),#0
128994,11,1,2395,07:44:06,07:44:06,32,16906,AMBOY AVE AT CRICKET LN,40.54657,-74.278172,,0,POINT (-74.278172 40.54657),#0
128995,11,1,2395,07:45:29,07:45:29,33,3471,CONVERY BLVD AT RUDYARD DR,40.5391,-74.27778,,0,POINT (-74.27778 40.5391),#0
128996,11,1,2395,07:45:53,07:45:53,34,3472,CONVERY BLVD AT CLARK AVE,40.536798,-74.278281,,0,POINT (-74.278281 40.536798),#0
128997,11,1,2395,07:46:15,07:46:15,35,3473,CONVERY BLVD AT LINDBERGH AVE,40.53477,-74.278732,,0,POINT (-74.278732 40.53477),#0
128998,11,1,2395,07:46:47,07:46:47,36,3474,CONVERY BLVD AT DOROTHY AVE,40.531739,-74.279402,,0,POINT (-74.279402 40.531739),#0
128999,11,1,2395,07:47:31,07:47:31,37,3475,CONVERY BLVD AT HARDING AVE,40.527569,-74.280342,,0,POINT (-74.280342 40.527569),#0
129000,11,1,2395,07:48:08,07:48:08,38,3476,CONVERY BLVD AT HARRINGTON ST,40.524028,-74.281082,,0,POINT (-74.281082 40.524028),#0
129001,11,1,2395,07:48:25,07:48:25,39,3477,CONVERY BLVD AT BRACE AVE,40.522378,-74.281443,,0,POINT (-74.281443 40.522378),#0
129002,11,1,2395,07:49:00,07:49:00,40,3454,NEW BRUNSWICK AVE AT BAKER PL,40.519378,-74.282574,,0,POINT (-74.282574 40.519378),#0
129003,11,1,2395,07:49:20,07:49:20,41,3455,NEW BRUNSWICK AVE AT STEADMAN PL,40.518619,-74.281211,,0,POINT (-74.281211 40.518619),#0
129004,11,1,2395,07:50:04,07:50:04,42,3456,NEW BRUNSWICK AVE AT AUGUSTINE PL,40.517279,-74.279093,,0,POINT (-74.279093 40.517279),#0
129005,11,1,2395,07:51:00,07:51:00,43,3457,NEW BRUNSWICK AVE AT AMBOY AVE,40.51538,-74.275874,,0,POINT (-74.275874 40.51538),#0
129006,11,1,2395,07:52:06,07:52:06,44,3478,PROSPECT ST AT FAYETTE ST,40.51227,-74.275113,,0,POINT (-74.275113 40.51227),#0
129007,11,1,2395,07:52:38,07:52:38,45,41255,PROSPECT ST AT SMITH ST,40.51093,-74.275803,,0,POINT (-74.275803 40.51093),#0
129008,11,1,2395,07:53:13,07:53:13,46,3444,"RAIL STATION, SMITH ST AT ELM ST",40.510149,-74.273652,,0,POINT (-74.273652 40.510149),#0
129009,11,1,2395,07:53:38,07:53:38,47,3445,SMITH ST AT MAPLE ST,40.509529,-74.271661,,0,POINT (-74.271661 40.509529),#0
129010,11,1,2395,07:54:04,07:54:04,48,3446,SMITH ST AT MADISON AVE,40.50908,-74.269863,,0,POINT (-74.269863 40.50908),#0
129011,11,1,2395,07:54:39,07:54:39,49,3447,SMITH ST AT STATE ST,40.508409,-74.267523,,0,POINT (-74.267523 40.508409),#0
129012,11,1,2395,07:55:34,07:55:34,50,3453,HIGH ST AT SMITH ST,40.508779,-74.26474,,0,POINT (-74.26474 40.508779),#0
129013,11,1,2395,07:57:00,07:57:00,51,3479,WASHINGTON ST AT HIGH ST,40.51264,-74.262473,,0,POINT (-74.262473 40.51264),#0
135431,12,3,2523,05:49:00,05:49:00,1,39277,MOUNTAIN AVE AT OAK TER/BROOKSIDE AVE,40.580587,-74.618941,,0,POINT (-74.618941 40.580587),#0
135432,12,3,2523,05:51:37,05:51:37,2,39278,WEST END AVE AT MOUNTAIN AVE,40.570758,-74.619632,,0,POINT (-74.619632 40.570758),#0
135433,12,3,2523,05:52:11,05:52:11,3,39283,W MAIN ST AT S DOUGHTY AVE,40.569859,-74.617601,,0,POINT (-74.617601 40.569859),#0
135434,12,3,2523,05:53:08,05:53:08,4,39279,W MAIN ST AT DIVISION ST,40.5685,-74.613083,,0,POINT (-74.613083 40.5685),#0
135435,12,3,2523,05:54:00,05:54:00,5,39280,MAIN ST AT GROVE ST,40.567138,-74.609103,,0,POINT (-74.609103 40.567138),#0
135436,12,3,2523,05:54:19,05:54:19,6,39281,E MAIN ST AT MEADOW ST,40.566379,-74.606253,,0,POINT (-74.606253 40.566379),#0
135437,12,3,2523,05:55:08,05:55:08,7,25394,N GASTON AVE AT E CLIFF ST,40.569289,-74.602492,,0,POINT (-74.602492 40.569289),#0
135438,12,3,2523,05:55:28,05:55:28,8,36854,N GASTON AVE AT UNION AVE,40.571418,-74.60166,,0,POINT (-74.60166 40.571418),#0
135439,12,3,2523,05:56:14,05:56:14,9,4306,UNION AVE AT REHILL AVE,40.571059,-74.595161,,0,POINT (-74.595161 40.571059),#0
135440,12,3,2523,05:57:14,05:57:14,10,25306,UNION AVE AT ADAMSVILLE RD#,40.570498,-74.586441,,0,POINT (-74.586441 40.570498),#0
135441,12,3,2523,05:58:04,05:58:04,11,25307,UNION AVE AT MORGAN PL,40.56975,-74.579193,,0,POINT (-74.579193 40.56975),#0
135442,12,3,2523,05:58:30,05:58:30,12,16914,FINDERNE AVE AT UNION AVE#,40.569859,-74.575722,,0,POINT (-74.575722 40.569859),#0
135443,12,3,2523,06:02:05,06:02:05,13,16915,RT-22 AT THOMPSON AVE#,40.57517,-74.551153,,0,POINT (-74.551153 40.57517),#0
135444,12,3,2523,06:03:02,06:03:02,14,16916,RT-22 AT VOSSELLER AVE#,40.576288,-74.54435,,0,POINT (-74.54435 40.576288),#0
135445,12,3,2523,06:05:00,06:05:00,15,8100,RT-22 AT MOUNTAIN AVE#,40.578798,-74.527423,,0,POINT (-74.527423 40.578798),#0
135446,12,3,2523,06:07:29,06:07:29,16,44023,RT. 22 AT SEBRINGS MILL ROAD,40.585862,-74.508894,,0,POINT (-74.508894 40.585862),#0
135447,12,3,2523,06:09:08,06:09:08,17,16918,RT-22 AT CRAMER AVE#,40.591858,-74.497243,,0,POINT (-74.497243 40.591858),#0
135448,12,3,2523,06:10:16,06:10:16,18,16919,RT-22 AT WARRENVILLE RD#,40.595568,-74.490332,,0,POINT (-74.490332 40.595568),#0
135449,12,3,2523,06:12:23,06:12:23,19,16920,RT-22 AT WASHINGTON AVE#,40.60331,-74.475912,,0,POINT (-74.475912 40.60331),#0
135450,12,3,2523,06:14:09,06:14:09,20,16921,RT-22 AT ROCK AVE#,40.609938,-74.464002,,0,POINT (-74.464002 40.609938),#0
135451,12,3,2523,06:15:59,06:15:59,21,32207,RT-22 AT WEST END AVE,40.61754,-74.45201,,0,POINT (-74.45201 40.61754),#0
135452,12,3,2523,06:19:00,06:19:00,22,13990,MOUNTAIN AVE AT WATCHUNG AVE,40.626237,-74.432141,,0,POINT (-74.432141 40.626237),#0
135453,12,3,2523,06:20:18,06:20:18,23,13992,MOUNTAIN AVE AT NORWOOD AVE,40.630088,-74.427741,,0,POINT (-74.427741 40.630088),#0
135454,12,3,2523,06:20:59,06:20:59,24,13993,MOUNTAIN AVE AT ONEIDA AVE,40.632178,-74.4253,,0,POINT (-74.4253 40.632178),#0
135455,12,3,2523,06:21:41,06:21:41,25,25545,MOUNTAIN AVE AT FARRAGUT RD,40.63439,-74.422703,,0,POINT (-74.422703 40.63439),#0
135456,12,3,2523,06:23:28,06:23:28,26,13996,MOUNTAIN AVE AT GRAYBAR DR,40.640158,-74.416092,,0,POINT (-74.416092 40.640158),#0
135457,12,3,2523,06:26:20,06:26:20,27,39794,RT-22 AT WILLOW AVE,40.649678,-74.40634,,0,POINT (-74.40634 40.649678),#0
135458,12,3,2523,06:26:57,06:26:57,28,39795,RT-22 AT HAVEN AVE,40.651969,-74.404962,,0,POINT (-74.404962 40.651969),#0
135459,12,3,2523,06:28:00,06:28:00,29,39796,US-22 AT UNION AVE,40.655528,-74.401482,,0,POINT (-74.401482 40.655528),#0
135460,12,3,2523,06:29:35,06:29:35,30,41256,RT-22 AT BYRD AVE,40.661729,-74.393232,,0,POINT (-74.393232 40.661729),#0
135461,12,3,2523,06:30:15,06:30:15,31,16929,RT-22 AT VICTOR ST,40.663987,-74.388833,,0,POINT (-74.388833 40.663987),#0
135462,12,3,2523,06:31:18,06:31:18,32,16930,RT-22 80'E OF GLENSIDE AVE.,40.666709,-74.382143,,0,POINT (-74.382143 40.666709),#0
135463,12,3,2523,06:33:13,06:33:13,33,8321,US-22 & LAWRENCE AVE,40.66909,-74.368652,,0,POINT (-74.368652 40.66909),#0
135464,12,3,2523,06:35:00,06:35:00,34,4319,RT-22 AT NEW PROVIDENCE RD,40.672079,-74.356232,,0,POINT (-74.356232 40.672079),#0
135465,12,3,2523,06:36:43,06:36:43,35,4314,US-22 AT MILL LN,40.682649,-74.338913,,0,POINT (-74.338913 40.682649),#0
135466,12,3,2523,06:37:27,06:37:27,36,25517,US-22 70'E OF DUNDAR RD,40.6848,-74.33007,,0,POINT (-74.33007 40.6848),#0
135467,12,3,2523,06:37:54,06:37:54,37,31616,US-22 450'E OF S SPRINGFIELD AVE,40.685099,-74.323971,,0,POINT (-74.323971 40.685099),#0
135468,12,3,2523,06:38:08,06:38:08,38,8313,US-22 AT LAWRENCE RD,40.685318,-74.321082,,0,POINT (-74.321082 40.685318),#0
135469,12,3,2523,06:38:29,06:38:29,39,16760,US-22 AT FADAM RD,40.686449,-74.316602,,0,POINT (-74.316602 40.686449),#0
135470,12,3,2523,06:38:43,06:38:43,40,25341,US-22 1150'E OF FADAM RD,40.687359,-74.313692,,0,POINT (-74.313692 40.687359),#0
135471,12,3,2523,06:39:04,06:39:04,41,25342,US-22 1700'W OF JEFFERSON AVE,40.688039,-74.3091,,0,POINT (-74.3091 40.688039),#0
135472,12,3,2523,06:40:00,06:40:00,42,25428,US-22 AT SPRINGFIELD RD,40.689688,-74.296773,,0,POINT (-74.296773 40.689688),#0
135473,12,3,2523,06:40:24,06:40:24,43,39486,US-22 AT MICHIGAN AVE,40.690089,-74.293333,,0,POINT (-74.293333 40.690089),#0
135474,12,3,2523,06:40:40,06:40:40,44,31637,US-22 560'W OF BALL AVE,40.690379,-74.291013,,0,POINT (-74.291013 40.690379),#0
135475,12,3,2523,07:25:37,07:25:37,45,43310,PORT AUTHORITY DROP OFF,40.756707,-73.992134,,0,POINT (-73.992134 40.756707),#0
135476,12,3,2523,07:26:00,07:26:00,46,43274,PORT AUTHORITY BUS TERMINAL,40.756209,-73.991001,,0,POINT (-73.991001 40.756209),#0
146449,13,3,2677,04:34:00,04:34:00,1,42828,JFK BLVD AT 3RD ST,40.648719,-74.137621,,0,POINT (-74.137621 40.648719),#0
146450,13,3,2677,04:34:26,04:34:26,2,42829,JFK BLVD AT 4TH ST,40.650519,-74.136124,,0,POINT (-74.136124 40.650519),#0
146451,13,3,2677,04:35:09,04:35:09,3,43261,JFK BLVD AT W 7TH STREET,40.652969,-74.135063,,0,POINT (-74.135063 40.652969),#0
146452,13,3,2677,04:36:11,04:36:11,4,42830,JFK BLVD AT 8TH ST,40.65637,-74.131151,,0,POINT (-74.131151 40.65637),#0
146453,13,3,2677,04:36:34,04:36:34,5,36863,JFK BLVD AT 10TH ST,40.657718,-74.130012,,0,POINT (-74.130012 40.657718),#0
146454,13,3,2677,04:36:54,04:36:54,6,42831,JFK BLVD AT 12TH ST,40.658589,-74.129284,,0,POINT (-74.129284 40.658589),#0
146455,13,3,2677,04:37:14,04:37:14,7,42832,JFK BLVD AT 14TH ST,40.660058,-74.12802,,0,POINT (-74.12802 40.660058),#0
146456,13,3,2677,04:37:40,04:37:40,8,42833,JFK BLVD AT 16TH ST,40.66159,-74.12672,,0,POINT (-74.12672 40.66159),#0
146457,13,3,2677,04:38:02,04:38:02,9,42834,JFK BLVD AT ANDREW ST,40.662768,-74.125771,,0,POINT (-74.125771 40.662768),#0
146458,13,3,2677,04:38:20,04:38:20,10,42835,JFK BLVD AT 19TH ST,40.663908,-74.124721,,0,POINT (-74.124721 40.663908),#0
146459,13,3,2677,04:38:40,04:38:40,11,42836,JFK BLVD AT 21ST ST,40.665048,-74.123732,,0,POINT (-74.123732 40.665048),#0
146460,13,3,2677,04:39:04,04:39:04,12,42837,JFK BLVD AT 23RD ST,40.666498,-74.122541,,0,POINT (-74.122541 40.666498),#0
146461,13,3,2677,04:40:00,04:40:00,13,42838,JFK BLVD AT 27TH ST,40.669649,-74.119863,,0,POINT (-74.119863 40.669649),#0
146462,13,3,2677,04:40:34,04:40:34,14,42839,JFK BLVD AT 30TH ST,40.671638,-74.118222,,0,POINT (-74.118222 40.671638),#0
146463,13,3,2677,04:41:05,04:41:05,15,42840,JFK BLVD AT 32ND ST,40.673208,-74.116913,,0,POINT (-74.116913 40.673208),#0
146464,13,3,2677,04:41:46,04:41:46,16,42841,JFK BLVD AT 34TH ST,40.675658,-74.114821,,0,POINT (-74.114821 40.675658),#0
146465,13,3,2677,04:42:27,04:42:27,17,42941,JFK BLVD AT 38 TH ST,40.678199,-74.114152,,0,POINT (-74.114152 40.678199),#0
146466,13,3,2677,04:42:41,04:42:41,18,42842,JFK BLVD AT 39TH ST,40.67924,-74.113403,,0,POINT (-74.113403 40.67924),#0
146467,13,3,2677,04:42:58,04:42:58,19,42843,JFK BLVD AT DELVIN DR,40.680289,-74.112642,,0,POINT (-74.112642 40.680289),#0
146468,13,3,2677,04:43:31,04:43:31,20,43102,JFK BLVD AT W 44TH ST,40.681969,-74.111423,,0,POINT (-74.111423 40.681969),#0
146469,13,3,2677,04:44:12,04:44:12,21,42844,JFK BLVD AT 48TH ST,40.684479,-74.109572,,0,POINT (-74.109572 40.684479),#0
146470,13,3,2677,04:44:41,04:44:41,22,42845,JFK BLVD AT 50TH ST,40.686099,-74.108382,,0,POINT (-74.108382 40.686099),#0
146471,13,3,2677,04:45:01,04:45:01,23,42846,JFK BLVD AT 52ND ST,40.68728,-74.107381,,0,POINT (-74.107381 40.68728),#0
146472,13,3,2677,04:45:18,04:45:18,24,42847,JFK BLVD AT 54TH ST,40.688507,-74.106373,,0,POINT (-74.106373 40.688507),#0
146473,13,3,2677,04:45:47,04:45:47,25,42848,JFK BLVD AT 57TH ST,40.689949,-74.105141,,0,POINT (-74.105141 40.689949),#0
146474,13,3,2677,04:45:59,04:45:59,26,42849,JFK BLVD AT 58TH ST,40.690609,-74.10458,,0,POINT (-74.10458 40.690609),#0
146475,13,3,2677,04:46:36,04:46:36,27,42850,JFK BLVD AT 63RD ST,40.692659,-74.102702,,0,POINT (-74.102702 40.692659),#0
146476,13,3,2677,04:47:00,04:47:00,28,42882,JFK BLVD AT PAMRAPO AVE,40.693659,-74.100933,,0,POINT (-74.100933 40.693659),#0
146477,13,3,2677,04:47:58,04:47:58,29,42883,JFK BLVD AT GATES AVE,40.695207,-74.099332,,0,POINT (-74.099332 40.695207),#0
146478,13,3,2677,04:48:57,04:48:57,30,43259,JFK BLVD AT WINFIELD AVE,40.696978,-74.097561,,0,POINT (-74.097561 40.696978),#0
146479,13,3,2677,04:49:34,04:49:34,31,42884,JFK BLVD AT PEARSALL AVE,40.697808,-74.096713,,0,POINT (-74.096713 40.697808),#0
146480,13,3,2677,04:50:13,04:50:13,32,42885,JFK BLVD AT GREENVILLE AVE,40.699148,-74.095471,,0,POINT (-74.095471 40.699148),#0
146481,13,3,2677,04:50:59,04:50:59,33,42886,JFK BLVD AT DANFORTH AVE,40.70014,-74.094342,,0,POINT (-74.094342 40.70014),#0
146482,13,3,2677,04:52:00,04:52:00,34,42887,JFK BLVD AT MCADOO AVE,40.701658,-74.092513,,0,POINT (-74.092513 40.701658),#0
146483,13,3,2677,04:52:35,04:52:35,35,42888,JFK BLVD AT WADE ST,40.702749,-74.09122,,0,POINT (-74.09122 40.702749),#0
146484,13,3,2677,04:53:17,04:53:17,36,42889,JFK BLVD AT FOWLER AVE,40.704138,-74.090173,,0,POINT (-74.090173 40.704138),#0
146485,13,3,2677,04:53:53,04:53:53,37,42891,JFK BLVD AT WOODLAWN AVE,40.705448,-74.089261,,0,POINT (-74.089261 40.705448),#0
146486,13,3,2677,04:54:33,04:54:33,38,42892,JFK BLVD AT DWIGHT ST,40.706938,-74.088491,,0,POINT (-74.088491 40.706938),#0
146487,13,3,2677,04:55:05,04:55:05,39,42893,JFK BLVD AT AUDUBON AVE,40.707889,-74.08725,,0,POINT (-74.08725 40.707889),#0
146488,13,3,2677,04:55:47,04:55:47,40,43257,JFK BLVD 50'N OF BAYVIEW AVENUE,40.709177,-74.085792,,0,POINT (-74.085792 40.709177),#0
146489,13,3,2677,04:56:35,04:56:35,41,42894,JFK BLVD AT BROADMAN PKWY,40.710989,-74.084642,,0,POINT (-74.084642 40.710989),#0
146490,13,3,2677,04:57:01,04:57:01,42,42895,JFK BLVD AT CLAREMONT AVE,40.712178,-74.083832,,0,POINT (-74.083832 40.712178),#0
146491,13,3,2677,04:57:42,04:57:42,43,42896,JFK BLVD AT MORTON PL,40.713427,-74.083101,,0,POINT (-74.083101 40.713427),#0
146492,13,3,2677,04:58:07,04:58:07,44,42897,JFK BLVD AT EGE AVE,40.71445,-74.082683,,0,POINT (-74.082683 40.71445),#0
146493,13,3,2677,04:58:49,04:58:49,45,42898,JFK BLVD AT BOYD AVE,40.716107,-74.081513,,0,POINT (-74.081513 40.716107),#0
146494,13,3,2677,04:59:46,04:59:46,46,42899,JFK BLVD AT CLENDENNY AVE,40.717647,-74.079651,,0,POINT (-74.079651 40.717647),#0
146495,13,3,2677,05:00:25,05:00:25,47,42900,JFK BLVD AT CLINTON AVE,40.718878,-74.078341,,0,POINT (-74.078341 40.718878),#0
146496,13,3,2677,05:01:00,05:01:00,48,42901,JFK BLVD AT COMMUNIPAW AVE,40.720018,-74.077192,,0,POINT (-74.077192 40.720018),#0
146497,13,3,2677,05:01:22,05:01:22,49,42902,JFK BLVD AT BENTLEY AVE,40.720928,-74.076392,,0,POINT (-74.076392 40.720928),#0
146498,13,3,2677,05:02:28,05:02:28,50,42903,JFK BLVD AT KENSINGTON AVE,40.722807,-74.075104,,0,POINT (-74.075104 40.722807),#0
146499,13,3,2677,05:02:50,05:02:50,51,42904,JFK BLVD AT JEWETT AVE,40.723747,-74.074441,,0,POINT (-74.074441 40.723747),#0
146500,13,3,2677,05:03:41,05:03:41,52,42905,JFK BLVD AT DUNCAN AVE,40.725098,-74.073401,,0,POINT (-74.073401 40.725098),#0
146501,13,3,2677,05:04:40,05:04:40,53,42906,JFK BLVD AT MONTGOMERY ST,40.726427,-74.07137,,0,POINT (-74.07137 40.726427),#0
146502,13,3,2677,05:05:13,05:05:13,54,42907,JFK BLVD AT GLENWOOD AVE,40.72771,-74.07045,,0,POINT (-74.07045 40.72771),#0
146503,13,3,2677,05:06:10,05:06:10,55,42908,JFK BLVD AT STUYVESANT AVE,40.729137,-74.069503,,0,POINT (-74.069503 40.729137),#0
146504,13,3,2677,05:07:17,05:07:17,56,42909,JFK BLVD AT SIP AVE,40.731239,-74.067861,,0,POINT (-74.067861 40.731239),#0
146505,13,3,2677,05:07:37,05:07:37,57,40861,SIP AVE AT TONNELLE AVE,40.731239,-74.067311,,0,POINT (-74.067311 40.731239),#0
146506,13,3,2677,05:10:00,05:10:00,58,43249,JOURNAL SQUARE TRANSPORTATION CENTER,40.732048,-74.062003,,0,POINT (-74.062003 40.732048),#0
146507,13,3,2677,05:10:04,05:10:04,59,43248,JOURNAL SQUARE TRANSPORTATION CENTER,40.7321,-74.06227,,0,POINT (-74.06227 40.7321),#0
146508,13,3,2677,05:12:18,05:12:18,60,2827,HOBOKEN AVE AT SUMMIT AVE,40.734659,-74.058621,,0,POINT (-74.058621 40.734659),#0
146509,13,3,2677,05:13:12,05:13:12,61,2828,CENTRAL AVE AT HOBOKEN AVE,40.734599,-74.056763,,0,POINT (-74.056763 40.734599),#0
146510,13,3,2677,05:13:51,05:13:51,62,2829,CENTRAL AVE AT SAINT PAULS AVE,40.736018,-74.056084,,0,POINT (-74.056084 40.736018),#0
146511,13,3,2677,05:14:24,05:14:24,63,2830,CENTRAL AVE AT BEACON AVE,40.73746,-74.05515,,0,POINT (-74.05515 40.73746),#0
146512,13,3,2677,05:15:20,05:15:20,64,2831,CENTRAL AVE AT WAVERLY ST,40.739087,-74.05403,,0,POINT (-74.05403 40.739087),#0
146513,13,3,2677,05:16:01,05:16:01,65,2832,CENTRAL AVE AT RESERVOIR AVE,40.740627,-74.053012,,0,POINT (-74.053012 40.740627),#0
146514,13,3,2677,05:16:26,05:16:26,66,2833,CENTRAL AVE AT BOORAEM AVE,40.741397,-74.052493,,0,POINT (-74.052493 40.741397),#0
146515,13,3,2677,05:17:00,05:17:00,67,35522,CENTRAL AVE AT MANHATTAN AVE,40.742589,-74.05166,,0,POINT (-74.05166 40.742589),#0
146516,13,3,2677,05:17:23,05:17:23,68,42956,CENTRAL AVE AT FRANKLIN ST,40.743499,-74.051073,,0,POINT (-74.051073 40.743499),#0
146517,13,3,2677,05:18:12,05:18:12,69,42874,CENTRAL AVE AT HUTTON ST,40.74493,-74.050082,,0,POINT (-74.050082 40.74493),#0
146518,13,3,2677,05:18:58,05:18:58,70,42875,CENTRAL AVE AT GRIFFITH ST,40.746048,-74.04925,,0,POINT (-74.04925 40.746048),#0
146519,13,3,2677,05:19:43,05:19:43,71,42876,CENTRAL AVE AT BOWERS ST,40.747157,-74.048524,,0,POINT (-74.048524 40.747157),#0
146520,13,3,2677,05:20:56,05:20:56,72,42878,CENTRAL AVE AT SOUTH ST,40.749237,-74.047061,,0,POINT (-74.047061 40.749237),#0
146521,13,3,2677,05:21:48,05:21:48,73,42879,CENTRAL AVE AT CONGRESS ST,40.75072,-74.046044,,0,POINT (-74.046044 40.75072),#0
146522,13,3,2677,05:22:28,05:22:28,74,2875,CONGRESS ST AT HANCOCK AVE,40.750279,-74.044671,,0,POINT (-74.044671 40.750279),#0
146523,13,3,2677,05:23:14,05:23:14,75,41160,CONGRESS ST AT WEBSTER AVE,40.749659,-74.042993,,0,POINT (-74.042993 40.749659),#0
146524,13,3,2677,05:24:00,05:24:00,76,42700,CONGRESS ST AT PALISADE AVE,40.74898,-74.041092,,0,POINT (-74.041092 40.74898),#0
146525,13,3,2677,05:24:30,05:24:30,77,39788,PATERSON PLANK RD AT CONGRESS ST,40.74898,-74.03941,,0,POINT (-74.03941 40.74898),#0
146526,13,3,2677,05:25:36,05:25:36,78,43062,S WING VIADUCT 180'N OF PATERSON PLANK ROAD,40.75169,-74.03812,,0,POINT (-74.03812 40.75169),#0
146527,13,3,2677,05:29:00,05:29:00,79,43349,WILLOW AVE AT 15TH ST,40.755058,-74.029293,,0,POINT (-74.029293 40.755058),#0
146528,13,3,2677,05:30:15,05:30:15,80,3123,WILLOW AVE AT 19TH ST,40.759809,-74.027751,,0,POINT (-74.027751 40.759809),#0
146529,13,3,2677,05:39:22,05:39:22,81,43310,PORT AUTHORITY DROP OFF,40.756707,-73.992134,,0,POINT (-73.992134 40.756707),#0
146530,13,3,2677,05:40:00,05:40:00,82,43274,PORT AUTHORITY BUS TERMINAL,40.756209,-73.991001,,0,POINT (-73.991001 40.756209),#0
156289,14,3,2808,05:40:00,05:40:00,1,35329,1ST ST AT AVE C,40.645419,-74.13036,,0,POINT (-74.13036 40.645419),#0
156290,14,3,2808,05:40:43,05:40:43,2,41139,AVE C AT W 2ND ST,40.646948,-74.130462,,0,POINT (-74.130462 40.646948),#0
156291,14,3,2808,05:41:11,05:41:11,3,41140,AVE C AT W 3RD ST,40.648349,-74.130363,,0,POINT (-74.130363 40.648349),#0
156292,14,3,2808,05:41:43,05:41:43,4,3002,AVE C AT W 4TH ST,40.649908,-74.130251,,0,POINT (-74.130251 40.649908),#0
156293,14,3,2808,05:42:13,05:42:13,5,3003,AVE C AT W 5TH ST,40.651289,-74.130152,,0,POINT (-74.130152 40.651289),#0
156294,14,3,2808,05:43:21,05:43:21,6,41141,BROADWAY AT SILVER ST,40.653018,-74.127412,,0,POINT (-74.127412 40.653018),#0
156295,14,3,2808,05:43:35,05:43:35,7,41142,BROADWAY AT COTTAGE ST,40.653607,-74.12691,,0,POINT (-74.12691 40.653607),#0
156296,14,3,2808,05:44:31,05:44:31,8,42679,8TH ST AT AVE C,40.654898,-74.128882,,0,POINT (-74.128882 40.654898),#0
156297,14,3,2808,05:45:10,05:45:10,9,42677,AVE C AT W 1OTH ST,40.656268,-74.127931,,0,POINT (-74.127931 40.656268),#0
156298,14,3,2808,05:45:36,05:45:36,10,3004,AVE C AT W 12TH ST,40.65737,-74.126993,,0,POINT (-74.126993 40.65737),#0
156299,14,3,2808,05:46:07,05:46:07,11,3005,AVE C AT W 14TH ST,40.65857,-74.125993,,0,POINT (-74.125993 40.65857),#0
