,route_id,service_id,trip_id,arrival_time,departure_time,stop_sequence,stop_id,stop_name,stop_lat,stop_lon,route_long_name,route_color,geometry,color
225,5,36CF2ED7,EMDE_201_20,17:13:00,17:13:00,1,237,Penn Station,40.750588444578,-73.993584084919,Montauk Branch,00B2A9,POINT (-73.993584084919 40.750588444578),#00B2A9
226,5,36CF2ED7,EMDE_201_20,17:32:00,17:33:00,2,102,Jamaica,40.699608169502,-73.808529871584,Montauk Branch,00B2A9,POINT (-73.808529871584 40.699608169502),#00B2A9
227,5,36CF2ED7,EMDE_201_20,18:15:00,18:15:00,3,27,Babylon,40.700689424802,-73.324055613067,Montauk Branch,00B2A9,POINT (-73.324055613067 40.700689424802),#00B2A9
228,5,36CF2ED7,EMDE_201_20,18:21:00,18:21:00,4,26,Bay Shore,40.724433435417,-73.254082948452,Montauk Branch,00B2A9,POINT (-73.254082948452 40.724433435417),#00B2A9
229,5,36CF2ED7,EMDE_201_20,18:26:00,18:26:00,5,100,Islip,40.735834489563,-73.209321448531,Montauk Branch,00B2A9,POINT (-73.209321448531 40.735834489563),#00B2A9
230,5,36CF2ED7,EMDE_201_20,18:29:00,18:29:00,6,74,Great River,40.740444435855,-73.170195850396,Montauk Branch,00B2A9,POINT (-73.170195850396 40.740444435855),#00B2A9
231,5,36CF2ED7,EMDE_201_20,18:33:00,18:33:00,7,157,Oakdale,40.74343274705,-73.132435494821,Montauk Branch,00B2A9,POINT (-73.132435494821 40.74343274705),#00B2A9
232,5,36CF2ED7,EMDE_201_20,18:38:00,18:38:00,8,204,Sayville,40.740353734002,-73.086455307829,Montauk Branch,00B2A9,POINT (-73.086455307829 40.740353734002),#00B2A9
233,5,36CF2ED7,EMDE_201_20,18:45:00,18:45:00,9,163,Patchogue,40.761879012377,-73.015744510946,Montauk Branch,00B2A9,POINT (-73.015744510946 40.761879012377),#00B2A9
234,5,36CF2ED7,EMDE_201_20,18:51:00,18:51:00,10,21,Bellport,40.773738904482,-72.943965742491,Montauk Branch,00B2A9,POINT (-72.943965742491 40.773738904482),#00B2A9
235,5,36CF2ED7,EMDE_201_20,18:58:00,18:58:00,11,140,Mastic Shirley,40.798988151573,-72.864422717948,Montauk Branch,00B2A9,POINT (-72.864422717948 40.798988151573),#00B2A9
236,5,36CF2ED7,EMDE_201_20,19:19:00,19:19:00,12,198,Speonk,40.821315163654,-72.705262245283,Montauk Branch,00B2A9,POINT (-72.705262245283 40.821315163654),#00B2A9
237,5,36CF2ED7,EMDE_201_20,19:26:00,19:26:00,13,233,Westhampton,40.830305321957,-72.650324540393,Montauk Branch,00B2A9,POINT (-72.650324540393 40.830305321957),#00B2A9
238,5,36CF2ED7,EMDE_201_20,19:36:00,19:36:00,14,83,Hampton Bays,40.876609161601,-72.523949360691,Montauk Branch,00B2A9,POINT (-72.523949360691 40.876609161601),#00B2A9
239,5,36CF2ED7,EMDE_201_20,19:46:00,19:46:00,15,191,Southampton,40.894718742702,-72.390123758063,Montauk Branch,00B2A9,POINT (-72.390123758063 40.894718742702),#00B2A9
240,5,36CF2ED7,EMDE_201_20,19:54:00,19:54:00,16,13,Bridgehampton,40.938983784659,-72.310045934299,Montauk Branch,00B2A9,POINT (-72.310045934299 40.938983784659),#00B2A9
241,5,36CF2ED7,EMDE_201_20,20:05:00,20:05:00,17,48,East Hampton,40.965086290451,-72.193242380184,Montauk Branch,00B2A9,POINT (-72.193242380184 40.965086290451),#00B2A9
242,5,36CF2ED7,EMDE_201_20,20:10:00,20:10:00,18,4,Amagansett,40.98003964435,-72.132334158689,Montauk Branch,00B2A9,POINT (-72.132334158689 40.98003964435),#00B2A9
243,5,36CF2ED7,EMDE_201_20,20:30:00,20:30:00,19,141,Montauk,41.047108960897,-71.953881026163,Montauk Branch,00B2A9,POINT (-71.953881026163 41.047108960897),#00B2A9
1819,1,E6175B8A,EMDE_201_197_1,23:44:00,23:44:00,1,27,Babylon,40.700689424802,-73.324055613067,Babylon Branch,00985F,POINT (-73.324055613067 40.700689424802),#00985F
1820,1,E6175B8A,EMDE_201_197_1,23:49:00,23:49:00,2,117,Lindenhurst,40.688265039296,-73.36921149343,Babylon Branch,00985F,POINT (-73.36921149343 40.688265039296),#00985F
1821,1,E6175B8A,EMDE_201_197_1,23:52:00,23:52:00,3,38,Copiague,40.681015284497,-73.398340272601,Babylon Branch,00985F,POINT (-73.398340272601 40.681015284497),#00985F
1822,1,E6175B8A,EMDE_201_197_1,23:54:00,23:54:00,4,8,Amityville,40.680248589464,-73.420311922548,Babylon Branch,00985F,POINT (-73.420311922548 40.680248589464),#00985F
1823,1,E6175B8A,EMDE_201_197_1,23:56:00,23:56:00,5,135,Massapequa Park,40.677859099302,-73.454737237713,Babylon Branch,00985F,POINT (-73.454737237713 40.677859099302),#00985F
1824,1,E6175B8A,EMDE_201_197_1,23:58:00,23:58:00,6,136,Massapequa,40.676930139365,-73.469055515159,Babylon Branch,00985F,POINT (-73.469055515159 40.676930139365),#00985F
1825,1,E6175B8A,EMDE_201_197_1,24:01:00,24:01:00,7,187,Seaford,40.67572393081,-73.486568465649,Babylon Branch,00985F,POINT (-73.486568465649 40.67572393081),#00985F
1826,1,E6175B8A,EMDE_201_197_1,24:04:00,24:04:00,8,215,Wantagh,40.672990158071,-73.508964843715,Babylon Branch,00985F,POINT (-73.508964843715 40.672990158071),#00985F
1827,1,E6175B8A,EMDE_201_197_1,24:07:00,24:07:00,9,16,Bellmore,40.668800434534,-73.528860158895,Babylon Branch,00985F,POINT (-73.528860158895 40.668800434534),#00985F
1828,1,E6175B8A,EMDE_201_197_1,24:10:00,24:10:00,10,226,Merrick,40.663800403938,-73.55062102286,Babylon Branch,00985F,POINT (-73.55062102286 40.663800403938),#00985F
1829,1,E6175B8A,EMDE_201_197_1,24:13:00,24:13:00,11,64,Freeport,40.657457992806,-73.582324012042,Babylon Branch,00985F,POINT (-73.582324012042 40.657457992806),#00985F
1830,1,E6175B8A,EMDE_201_197_1,24:16:00,24:16:00,12,225,Baldwin,40.656732235482,-73.607162453643,Babylon Branch,00985F,POINT (-73.607162453643 40.656732235482),#00985F
1831,1,E6175B8A,EMDE_201_197_1,24:19:00,24:19:00,13,183,Rockville Centre,40.658318110666,-73.646549348655,Babylon Branch,00985F,POINT (-73.646549348655 40.658318110666),#00985F
1832,1,E6175B8A,EMDE_201_197_1,24:30:00,24:30:00,14,184,St. Albans,40.69118348287,-73.76550936909,Babylon Branch,00985F,POINT (-73.76550936909 40.69118348287),#00985F
1833,1,E6175B8A,EMDE_201_197_1,24:35:00,24:36:00,15,102,Jamaica,40.699608169502,-73.808529871584,Babylon Branch,00985F,POINT (-73.808529871584 40.699608169502),#00985F
1834,1,E6175B8A,EMDE_201_197_1,24:40:00,24:40:00,16,107,Kew Gardens,40.709649173337,-73.830888068322,Babylon Branch,00985F,POINT (-73.830888068322 40.709649173337),#00985F
1835,1,E6175B8A,EMDE_201_197_1,24:42:00,24:42:00,17,55,Forest Hills,40.719575563308,-73.844814015321,Babylon Branch,00985F,POINT (-73.844814015321 40.719575563308),#00985F
1836,1,E6175B8A,EMDE_201_197_1,24:54:00,24:54:00,18,237,Penn Station,40.750588444578,-73.993584084919,Babylon Branch,00985F,POINT (-73.993584084919 40.750588444578),#00985F
17729,9,A44B2E69,EMDE_201_300_2633_METS,00:17:00,00:17:00,1,237,Penn Station,40.750588444578,-73.993584084919,Port Washington Branch,C60C30,POINT (-73.993584084919 40.750588444578),#C60C30
17730,9,A44B2E69,EMDE_201_300_2633_METS,00:28:00,00:28:00,2,214,Woodside,40.745850668789,-73.902975162886,Port Washington Branch,C60C30,POINT (-73.902975162886 40.745850668789),#C60C30
17731,9,A44B2E69,EMDE_201_300_2633_METS,00:35:00,00:35:00,3,199,Mets-Willets Point,40.75239834607,-73.843700590557,Port Washington Branch,C60C30,POINT (-73.843700590557 40.75239834607),#C60C30
17732,9,A44B2E69,EMDE_201_300_2633_METS,00:37:00,00:37:00,4,56,Flushing Main Street,40.75789494155,-73.831346838214,Port Washington Branch,C60C30,POINT (-73.831346838214 40.75789494155),#C60C30
17733,9,A44B2E69,EMDE_201_300_2633_METS,00:39:00,00:39:00,5,130,Murray Hill,40.762709261196,-73.814539282071,Port Washington Branch,C60C30,POINT (-73.814539282071 40.762709261196),#C60C30
17734,9,A44B2E69,EMDE_201_300_2633_METS,00:41:00,00:41:00,6,11,Broadway,40.761653179863,-73.801766123794,Port Washington Branch,C60C30,POINT (-73.801766123794 40.761653179863),#C60C30
17735,9,A44B2E69,EMDE_201_300_2633_METS,00:43:00,00:43:00,7,2,Auburndale,40.761442879546,-73.789959265817,Port Washington Branch,C60C30,POINT (-73.789959265817 40.761442879546),#C60C30
17736,9,A44B2E69,EMDE_201_300_2633_METS,00:46:00,00:46:00,8,25,Bayside,40.763152407322,-73.771249864065,Port Washington Branch,C60C30,POINT (-73.771249864065 40.763152407322),#C60C30
17737,9,A44B2E69,EMDE_201_300_2633_METS,00:48:00,00:48:00,9,42,Douglaston,40.768068624919,-73.749412651705,Port Washington Branch,C60C30,POINT (-73.749412651705 40.768068624919),#C60C30
17738,9,A44B2E69,EMDE_201_300_2633_METS,00:50:00,00:50:00,10,120,Little Neck,40.775043932267,-73.74064662099,Port Washington Branch,C60C30,POINT (-73.74064662099 40.775043932267),#C60C30
17739,9,A44B2E69,EMDE_201_300_2633_METS,00:53:00,00:53:00,11,72,Great Neck,40.787216474398,-73.726100459101,Port Washington Branch,C60C30,POINT (-73.726100459101 40.787216474398),#C60C30
17740,9,A44B2E69,EMDE_201_300_2633_METS,00:56:00,00:56:00,12,131,Manhasset,40.796724100129,-73.699899085184,Port Washington Branch,C60C30,POINT (-73.699899085184 40.796724100129),#C60C30
17741,9,A44B2E69,EMDE_201_300_2633_METS,00:58:00,00:58:00,13,162,Plandome,40.810698532132,-73.69521437574,Port Washington Branch,C60C30,POINT (-73.69521437574 40.810698532132),#C60C30
17742,9,A44B2E69,EMDE_201_300_2633_METS,01:04:00,01:04:00,14,171,Port Washington,40.829035331198,-73.687401000545,Port Washington Branch,C60C30,POINT (-73.687401000545 40.829035331198),#C60C30
2586,3,A44B2E69,EMDE_201_515,08:13:00,08:13:00,1,154,Oyster Bay,40.875337735301,-73.534033663087,Oyster Bay Branch,00AF3F,POINT (-73.534033663087 40.875337735301),#00AF3F
2587,3,A44B2E69,EMDE_201_515,08:23:00,08:23:00,2,123,Locust Valley,40.874466974435,-73.598302844258,Oyster Bay Branch,00AF3F,POINT (-73.598302844258 40.874466974435),#00AF3F
2588,3,A44B2E69,EMDE_201_515,08:27:00,08:27:00,3,67,Glen Cove,40.865834207355,-73.616166144678,Oyster Bay Branch,00AF3F,POINT (-73.616166144678 40.865834207355),#00AF3F
2589,3,A44B2E69,EMDE_201_515,08:29:00,08:29:00,4,76,Glen Street,40.857981115698,-73.621217154137,Oyster Bay Branch,00AF3F,POINT (-73.621217154137 40.857981115698),#00AF3F
2590,3,A44B2E69,EMDE_201_515,08:31:00,08:31:00,5,185,Sea Cliff,40.852368045296,-73.62541695304,Oyster Bay Branch,00AF3F,POINT (-73.62541695304 40.852368045296),#00AF3F
2591,3,A44B2E69,EMDE_201_515,08:35:00,08:35:00,6,71,Glen Head,40.832225307517,-73.626118215387,Oyster Bay Branch,00AF3F,POINT (-73.626118215387 40.832225307517),#00AF3F
2592,3,A44B2E69,EMDE_201_515,08:38:00,08:38:00,7,77,Greenvale,40.815715660905,-73.62687151863,Oyster Bay Branch,00AF3F,POINT (-73.62687151863 40.815715660905),#00AF3F
2593,3,A44B2E69,EMDE_201_515,08:43:00,08:43:00,8,182,Roslyn,40.790478098785,-73.643261754201,Oyster Bay Branch,00AF3F,POINT (-73.643261754201 40.790478098785),#00AF3F
2594,3,A44B2E69,EMDE_201_515,08:46:00,08:46:00,9,1,Albertson,40.772063168484,-73.641690951778,Oyster Bay Branch,00AF3F,POINT (-73.641690951778 40.772063168484),#00AF3F
2595,3,A44B2E69,EMDE_201_515,08:49:00,08:49:00,10,52,East Williston,40.756019095916,-73.63940763571,Oyster Bay Branch,00AF3F,POINT (-73.63940763571 40.756019095916),#00AF3F
2596,3,A44B2E69,EMDE_201_515,08:56:00,08:56:00,11,132,Mineola,40.740347428794,-73.640862925027,Oyster Bay Branch,00AF3F,POINT (-73.640862925027 40.740347428794),#00AF3F
2597,3,A44B2E69,EMDE_201_515,09:11:00,09:12:00,12,102,Jamaica,40.699608169502,-73.808529871584,Oyster Bay Branch,00AF3F,POINT (-73.808529871584 40.699608169502),#00AF3F
2598,3,A44B2E69,EMDE_201_515,09:28:00,09:28:00,13,90,Hunterspoint Avenue,40.742390460189,-73.946789974163,Oyster Bay Branch,00AF3F,POINT (-73.946789974163 40.742390460189),#00AF3F
2599,3,A44B2E69,EMDE_201_515,09:36:00,09:36:00,14,118,Long Island City,40.741343427306,-73.957639216355,Oyster Bay Branch,00AF3F,POINT (-73.957639216355 40.741343427306),#00AF3F
5672,10,A44B2E69,EMDE_201_1561,17:22:00,17:22:00,1,91,Huntington,40.85300971226,-73.409525763223,Port Jefferson Branch,006EC7,POINT (-73.409525763223 40.85300971226),#006EC7
5673,10,A44B2E69,EMDE_201_1561,17:27:00,17:27:00,2,40,Cold Spring Harbor,40.835638317706,-73.451085909868,Port Jefferson Branch,006EC7,POINT (-73.451085909868 40.835638317706),#006EC7
5674,10,A44B2E69,EMDE_201_1561,17:33:00,17:33:00,3,205,Syosset,40.824857463326,-73.500445595649,Port Jefferson Branch,006EC7,POINT (-73.500445595649 40.824857463326),#006EC7
5675,10,A44B2E69,EMDE_201_1561,17:40:00,17:40:00,4,92,Hicksville,40.767174914811,-73.528533222087,Port Jefferson Branch,006EC7,POINT (-73.528533222087 40.767174914811),#006EC7
5676,10,A44B2E69,EMDE_201_1561,17:45:00,17:45:00,5,213,Westbury,40.75345386364,-73.585866101374,Port Jefferson Branch,006EC7,POINT (-73.585866101374 40.75345386364),#006EC7
5677,10,A44B2E69,EMDE_201_1561,17:48:00,17:48:00,6,39,Carle Place,40.749207043991,-73.603652420643,Port Jefferson Branch,006EC7,POINT (-73.603652420643 40.749207043991),#006EC7
5678,10,A44B2E69,EMDE_201_1561,17:51:00,17:51:00,7,132,Mineola,40.740347428794,-73.640862925027,Port Jefferson Branch,006EC7,POINT (-73.640862925027 40.740347428794),#006EC7
5679,10,A44B2E69,EMDE_201_1561,17:53:00,17:53:00,8,127,Merillon Avenue,40.735169029401,-73.662521484606,Port Jefferson Branch,006EC7,POINT (-73.662521484606 40.735169029401),#006EC7
5680,10,A44B2E69,EMDE_201_1561,17:56:00,17:56:00,9,152,New Hyde Park,40.730757075652,-73.680958864193,Port Jefferson Branch,006EC7,POINT (-73.680958864193 40.730757075652),#006EC7
5681,10,A44B2E69,EMDE_201_1561,17:58:00,17:58:00,10,63,Floral Park,40.724637249062,-73.706397140779,Port Jefferson Branch,006EC7,POINT (-73.706397140779 40.724637249062),#006EC7
5682,10,A44B2E69,EMDE_201_1561,18:00:00,18:00:00,11,359,Elmont-UBS Arena,40.720074,-73.725549,Port Jefferson Branch,006EC7,POINT (-73.725549 40.720074),#006EC7
5683,10,A44B2E69,EMDE_201_1561,18:03:00,18:03:00,12,175,Queens Village,40.717457854779,-73.736459889162,Port Jefferson Branch,006EC7,POINT (-73.736459889162 40.717457854779),#006EC7
5684,10,A44B2E69,EMDE_201_1561,18:05:00,18:05:00,13,89,Hollis,40.71018150656,-73.766752522213,Port Jefferson Branch,006EC7,POINT (-73.766752522213 40.71018150656),#006EC7
5685,10,A44B2E69,EMDE_201_1561,18:07:00,18:07:00,14,86,Hillside Facility,40.7077358183,-73.7769585093,Port Jefferson Branch,006EC7,POINT (-73.7769585093 40.7077358183),#006EC7
5686,10,A44B2E69,EMDE_201_1561,18:12:00,18:13:00,15,102,Jamaica,40.699608169502,-73.808529871584,Port Jefferson Branch,006EC7,POINT (-73.808529871584 40.699608169502),#006EC7
5687,10,A44B2E69,EMDE_201_1561,18:16:00,18:16:00,16,107,Kew Gardens,40.709649173337,-73.830888068322,Port Jefferson Branch,006EC7,POINT (-73.830888068322 40.709649173337),#006EC7
5688,10,A44B2E69,EMDE_201_1561,18:32:00,18:32:00,17,237,Penn Station,40.750588444578,-73.993584084919,Port Jefferson Branch,006EC7,POINT (-73.993584084919 40.750588444578),#006EC7
3476,2,A44B2E69,EMDE_201_721,07:05:00,07:05:00,1,84,Hempstead,40.713296628618,-73.625032394185,Hempstead Branch,CE8E00,POINT (-73.625032394185 40.713296628618),#CE8E00
3477,2,A44B2E69,EMDE_201_721,07:08:00,07:08:00,2,36,Country Life Press,40.721456558004,-73.629673860041,Hempstead Branch,CE8E00,POINT (-73.629673860041 40.721456558004),#CE8E00
3478,2,A44B2E69,EMDE_201_721,07:11:00,07:11:00,3,68,Garden City,40.723101558546,-73.640361065047,Hempstead Branch,CE8E00,POINT (-73.640361065047 40.723101558546),#CE8E00
3479,2,A44B2E69,EMDE_201_721,07:13:00,07:13:00,4,149,Nassau Boulevard,40.722962452273,-73.662698233573,Hempstead Branch,CE8E00,POINT (-73.662698233573 40.722962452273),#CE8E00
3480,2,A44B2E69,EMDE_201_721,07:16:00,07:16:00,5,195,Stewart Manor,40.723027708732,-73.68102040763,Hempstead Branch,CE8E00,POINT (-73.68102040763 40.723027708732),#CE8E00
3481,2,A44B2E69,EMDE_201_721,07:19:00,07:19:00,6,63,Floral Park,40.724637249062,-73.706397140779,Hempstead Branch,CE8E00,POINT (-73.706397140779 40.724637249062),#CE8E00
3482,2,A44B2E69,EMDE_201_721,07:21:00,07:21:00,7,23,Bellerose,40.72220443209,-73.716652885972,Hempstead Branch,CE8E00,POINT (-73.716652885972 40.72220443209),#CE8E00
3483,2,A44B2E69,EMDE_201_721,07:23:00,07:23:00,8,359,Elmont-UBS Arena,40.720074,-73.725549,Hempstead Branch,CE8E00,POINT (-73.725549 40.720074),#CE8E00
3484,2,A44B2E69,EMDE_201_721,07:26:00,07:26:00,9,175,Queens Village,40.717457854779,-73.736459889162,Hempstead Branch,CE8E00,POINT (-73.736459889162 40.717457854779),#CE8E00
3485,2,A44B2E69,EMDE_201_721,07:29:00,07:29:00,10,89,Hollis,40.71018150656,-73.766752522213,Hempstead Branch,CE8E00,POINT (-73.766752522213 40.71018150656),#CE8E00
3486,2,A44B2E69,EMDE_201_721,07:35:00,07:36:00,11,102,Jamaica,40.699608169502,-73.808529871584,Hempstead Branch,CE8E00,POINT (-73.808529871584 40.699608169502),#CE8E00
3487,2,A44B2E69,EMDE_201_721,07:43:00,07:43:00,12,50,East New York,40.67581191072,-73.902808815532,Hempstead Branch,CE8E00,POINT (-73.902808815532 40.67581191072),#CE8E00
3488,2,A44B2E69,EMDE_201_721,07:48:00,07:48:00,13,148,Nostrand Avenue,40.678387847361,-73.948221083404,Hempstead Branch,CE8E00,POINT (-73.948221083404 40.678387847361),#CE8E00
3489,2,A44B2E69,EMDE_201_721,07:55:00,07:55:00,14,241,Atlantic Terminal,40.683595959933,-73.975671116775,Hempstead Branch,CE8E00,POINT (-73.975671116775 40.683595959933),#CE8E00
4047,6,A44B2E69,EMDE_201_807,04:15:00,04:15:00,1,113,Long Beach,40.590181700395,-73.664818219871,Long Beach Branch,FF6319,POINT (-73.664818219871 40.590181700395),#FF6319
4048,6,A44B2E69,EMDE_201_807,04:21:00,04:21:00,2,99,Island Park,40.601299060884,-73.654742476888,Long Beach Branch,FF6319,POINT (-73.654742476888 40.601299060884),#FF6319
4049,6,A44B2E69,EMDE_201_807,04:25:00,04:25:00,3,155,Oceanside,40.634721021217,-73.654665821473,Long Beach Branch,FF6319,POINT (-73.654665821473 40.634721021217),#FF6319
4050,6,A44B2E69,EMDE_201_807,04:27:00,04:27:00,4,51,East Rockaway,40.642210853009,-73.65821625512,Long Beach Branch,FF6319,POINT (-73.65821625512 40.642210853009),#FF6319
4051,6,A44B2E69,EMDE_201_807,04:29:00,04:29:00,5,31,Centre Avenue,40.648318354302,-73.663967495726,Long Beach Branch,FF6319,POINT (-73.663967495726 40.648318354302),#FF6319
4052,6,A44B2E69,EMDE_201_807,04:32:00,04:32:00,6,125,Lynbrook,40.656058137013,-73.676070834658,Long Beach Branch,FF6319,POINT (-73.676070834658 40.656058137013),#FF6319
4053,6,A44B2E69,EMDE_201_807,04:35:00,04:35:00,7,211,Valley Stream,40.661517619013,-73.704758752089,Long Beach Branch,FF6319,POINT (-73.704758752089 40.661517619013),#FF6319
4054,6,A44B2E69,EMDE_201_807,04:38:00,04:38:00,8,180,Rosedale,40.665949330793,-73.7355481613,Long Beach Branch,FF6319,POINT (-73.7355481613 40.665949330793),#FF6319
4055,6,A44B2E69,EMDE_201_807,04:41:00,04:41:00,9,122,Laurelton,40.668483044044,-73.751746866857,Long Beach Branch,FF6319,POINT (-73.751746866857 40.668483044044),#FF6319
4056,6,A44B2E69,EMDE_201_807,04:43:00,04:43:00,10,119,Locust Manor,40.675139071202,-73.76504303069,Long Beach Branch,FF6319,POINT (-73.76504303069 40.675139071202),#FF6319
4057,6,A44B2E69,EMDE_201_807,04:49:00,04:50:00,11,102,Jamaica,40.699608169502,-73.808529871584,Long Beach Branch,FF6319,POINT (-73.808529871584 40.699608169502),#FF6319
4058,6,A44B2E69,EMDE_201_807,04:58:00,04:58:00,12,214,Woodside,40.745850668789,-73.902975162886,Long Beach Branch,FF6319,POINT (-73.902975162886 40.745850668789),#FF6319
4059,6,A44B2E69,EMDE_201_807,05:08:00,05:08:00,13,237,Penn Station,40.750588444578,-73.993584084919,Long Beach Branch,FF6319,POINT (-73.993584084919 40.750588444578),#FF6319
6901,4,A44B2E69,EMDE_201_1903,01:54:00,01:54:00,1,179,Ronkonkoma,40.808086130523,-73.105940225025,Ronkonkoma Branch,A626AA,POINT (-73.105940225025 40.808086130523),#A626AA
6902,4,A44B2E69,EMDE_201_1903,02:01:00,02:01:00,2,33,Central Islip,40.791853124851,-73.194860817475,Ronkonkoma Branch,A626AA,POINT (-73.194860817475 40.791853124851),#A626AA
6903,4,A44B2E69,EMDE_201_1903,02:05:00,02:05:00,3,29,Brentwood,40.780834744876,-73.243610738835,Ronkonkoma Branch,A626AA,POINT (-73.243610738835 40.780834744876),#A626AA
6904,4,A44B2E69,EMDE_201_1903,02:10:00,02:10:00,4,44,Deer Park,40.76948363844,-73.293564944726,Ronkonkoma Branch,A626AA,POINT (-73.293564944726 40.76948363844),#A626AA
6905,4,A44B2E69,EMDE_201_1903,02:15:00,02:15:00,5,220,Wyandanch,40.754801009129,-73.358065881626,Ronkonkoma Branch,A626AA,POINT (-73.358065881626 40.754801009129),#A626AA
6906,4,A44B2E69,EMDE_201_1903,02:20:00,02:20:00,6,59,Farmingdale,40.735915026597,-73.441238780657,Ronkonkoma Branch,A626AA,POINT (-73.441238780657 40.735915026597),#A626AA
6907,4,A44B2E69,EMDE_201_1903,02:25:00,02:25:00,7,20,Bethpage,40.743039240046,-73.483438209526,Ronkonkoma Branch,A626AA,POINT (-73.483438209526 40.743039240046),#A626AA
6908,4,A44B2E69,EMDE_201_1903,02:30:00,02:30:00,8,92,Hicksville,40.767174914811,-73.528533222087,Ronkonkoma Branch,A626AA,POINT (-73.528533222087 40.767174914811),#A626AA
6909,4,A44B2E69,EMDE_201_1903,02:38:00,02:38:00,9,132,Mineola,40.740347428794,-73.640862925027,Ronkonkoma Branch,A626AA,POINT (-73.640862925027 40.740347428794),#A626AA
6910,4,A44B2E69,EMDE_201_1903,02:45:00,02:45:00,10,175,Queens Village,40.717457854779,-73.736459889162,Ronkonkoma Branch,A626AA,POINT (-73.736459889162 40.717457854779),#A626AA
6911,4,A44B2E69,EMDE_201_1903,02:47:00,02:47:00,11,89,Hollis,40.71018150656,-73.766752522213,Ronkonkoma Branch,A626AA,POINT (-73.766752522213 40.71018150656),#A626AA
6912,4,A44B2E69,EMDE_201_1903,02:49:00,02:49:00,12,86,Hillside Facility,40.7077358183,-73.7769585093,Ronkonkoma Branch,A626AA,POINT (-73.7769585093 40.7077358183),#A626AA
6913,4,A44B2E69,EMDE_201_1903,02:55:00,02:56:00,13,102,Jamaica,40.699608169502,-73.808529871584,Ronkonkoma Branch,A626AA,POINT (-73.808529871584 40.699608169502),#A626AA
6914,4,A44B2E69,EMDE_201_1903,03:04:00,03:04:00,14,214,Woodside,40.745850668789,-73.902975162886,Ronkonkoma Branch,A626AA,POINT (-73.902975162886 40.745850668789),#A626AA
6915,4,A44B2E69,EMDE_201_1903,03:15:00,03:15:00,15,237,Penn Station,40.750588444578,-73.993584084919,Ronkonkoma Branch,A626AA,POINT (-73.993584084919 40.750588444578),#A626AA
6478,8,A44B2E69,EMDE_201_1707,06:26:00,06:26:00,1,216,West Hempstead,40.701960987421,-73.641643611755,West Hempstead Branch,00A1DE,POINT (-73.641643611755 40.701960987421),#00A1DE
6479,8,A44B2E69,EMDE_201_1707,06:28:00,06:28:00,2,85,Hempstead Gardens,40.694913561152,-73.646208879636,West Hempstead Branch,00A1DE,POINT (-73.646208879636 40.694913561152),#00A1DE
6480,8,A44B2E69,EMDE_201_1707,06:30:00,06:30:00,3,124,Lakeview,40.685855824382,-73.652137774307,West Hempstead Branch,00A1DE,POINT (-73.652137774307 40.685855824382),#00A1DE
6481,8,A44B2E69,EMDE_201_1707,06:32:00,06:32:00,4,142,Malverne,40.675478439206,-73.668863639489,West Hempstead Branch,00A1DE,POINT (-73.668863639489 40.675478439206),#00A1DE
6482,8,A44B2E69,EMDE_201_1707,06:35:00,06:35:00,5,219,Westwood,40.668372272644,-73.681208783237,West Hempstead Branch,00A1DE,POINT (-73.681208783237 40.668372272644),#00A1DE
6483,8,A44B2E69,EMDE_201_1707,06:46:00,06:46:00,6,184,St. Albans,40.69118348287,-73.76550936909,West Hempstead Branch,00A1DE,POINT (-73.76550936909 40.69118348287),#00A1DE
6484,8,A44B2E69,EMDE_201_1707,06:52:00,06:53:00,7,102,Jamaica,40.699608169502,-73.808529871584,West Hempstead Branch,00A1DE,POINT (-73.808529871584 40.699608169502),#00A1DE
6485,8,A44B2E69,EMDE_201_1707,07:01:00,07:01:00,8,50,East New York,40.67581191072,-73.902808815532,West Hempstead Branch,00A1DE,POINT (-73.902808815532 40.67581191072),#00A1DE
6486,8,A44B2E69,EMDE_201_1707,07:06:00,07:06:00,9,148,Nostrand Avenue,40.678387847361,-73.948221083404,West Hempstead Branch,00A1DE,POINT (-73.948221083404 40.678387847361),#00A1DE
6487,8,A44B2E69,EMDE_201_1707,07:13:00,07:13:00,10,241,Atlantic Terminal,40.683595959933,-73.975671116775,West Hempstead Branch,00A1DE,POINT (-73.975671116775 40.683595959933),#00A1DE
8202,12,A44B2E69,EMDE_201_2714,06:46:00,06:46:00,1,241,Atlantic Terminal,40.683595959933,-73.975671116775,City Terminal Zone,4D5357,POINT (-73.975671116775 40.683595959933),#4D5357
8203,12,A44B2E69,EMDE_201_2714,06:53:00,06:53:00,2,148,Nostrand Avenue,40.678387847361,-73.948221083404,City Terminal Zone,4D5357,POINT (-73.948221083404 40.678387847361),#4D5357
8204,12,A44B2E69,EMDE_201_2714,06:58:00,06:58:00,3,50,East New York,40.67581191072,-73.902808815532,City Terminal Zone,4D5357,POINT (-73.902808815532 40.67581191072),#4D5357
8205,12,A44B2E69,EMDE_201_2714,07:07:00,07:10:00,4,102,Jamaica,40.699608169502,-73.808529871584,City Terminal Zone,4D5357,POINT (-73.808529871584 40.699608169502),#4D5357
8065,7,A44B2E69,EMDE_201_2701,00:07:00,00:07:00,1,65,Far Rockaway,40.609143108666,-73.750541345398,Far Rockaway Branch,6E3219,POINT (-73.750541345398 40.609143108666),#6E3219
8066,7,A44B2E69,EMDE_201_2701,00:11:00,00:11:00,2,101,Inwood,40.612287734083,-73.744183542466,Far Rockaway Branch,6E3219,POINT (-73.744183542466 40.612287734083),#6E3219
8067,7,A44B2E69,EMDE_201_2701,00:13:00,00:13:00,3,114,Lawrence,40.615734701373,-73.735899552581,Far Rockaway Branch,6E3219,POINT (-73.735899552581 40.615734701373),#6E3219
8068,7,A44B2E69,EMDE_201_2701,00:15:00,00:15:00,4,32,Cedarhurst,40.622174510272,-73.726182753764,Far Rockaway Branch,6E3219,POINT (-73.726182753764 40.622174510272),#6E3219
8069,7,A44B2E69,EMDE_201_2701,00:18:00,00:18:00,5,217,Woodmere,40.631336456456,-73.71371544423,Far Rockaway Branch,6E3219,POINT (-73.71371544423 40.631336456456),#6E3219
8070,7,A44B2E69,EMDE_201_2701,00:20:00,00:20:00,6,94,Hewlett,40.636764323527,-73.705138658734,Far Rockaway Branch,6E3219,POINT (-73.705138658734 40.636764323527),#6E3219
8071,7,A44B2E69,EMDE_201_2701,00:23:00,00:23:00,7,66,Gibson,40.649251729218,-73.701834833438,Far Rockaway Branch,6E3219,POINT (-73.701834833438 40.649251729218),#6E3219
8072,7,A44B2E69,EMDE_201_2701,00:27:00,00:27:00,8,211,Valley Stream,40.661517619013,-73.704758752089,Far Rockaway Branch,6E3219,POINT (-73.704758752089 40.661517619013),#6E3219
8073,7,A44B2E69,EMDE_201_2701,00:30:00,00:30:00,9,180,Rosedale,40.665949330793,-73.7355481613,Far Rockaway Branch,6E3219,POINT (-73.7355481613 40.665949330793),#6E3219
8074,7,A44B2E69,EMDE_201_2701,00:33:00,00:33:00,10,122,Laurelton,40.668483044044,-73.751746866857,Far Rockaway Branch,6E3219,POINT (-73.751746866857 40.668483044044),#6E3219
8075,7,A44B2E69,EMDE_201_2701,00:35:00,00:35:00,11,119,Locust Manor,40.675139071202,-73.76504303069,Far Rockaway Branch,6E3219,POINT (-73.76504303069 40.675139071202),#6E3219
8076,7,A44B2E69,EMDE_201_2701,00:42:00,00:43:00,12,102,Jamaica,40.699608169502,-73.808529871584,Far Rockaway Branch,6E3219,POINT (-73.808529871584 40.699608169502),#6E3219
8077,7,A44B2E69,EMDE_201_2701,00:51:00,00:51:00,13,214,Woodside,40.745850668789,-73.902975162886,Far Rockaway Branch,6E3219,POINT (-73.902975162886 40.745850668789),#6E3219
8078,7,A44B2E69,EMDE_201_2701,01:03:00,01:03:00,14,349,Grand Central,40.755162,-73.975455,Far Rockaway Branch,6E3219,POINT (-73.975455 40.755162),#6E3219
