,route_id,service_id,trip_id,arrival_time,departure_time,stop_sequence,stop_id,stop_name,stop_lat,stop_lon,route_long_name,route_color,geometry,color
0,1,1,1,04:28:00,04:28:00,1,10,ATLANTIC CITY,39.363299,-74.441486,Atlantic City Rail Line,075AAA,POINT (-74.441486 39.363299),#075AAA
1,1,1,1,04:39:00,04:39:00,2,2,ABSECON,39.424333,-74.502094,Atlantic City Rail Line,075AAA,POINT (-74.502094 39.424333),#075AAA
2,1,1,1,04:49:00,04:49:00,3,39,EGG HARBOR,39.526441,-74.648028,Atlantic City Rail Line,075AAA,POINT (-74.648028 39.526441),#075AAA
3,1,1,1,05:00:00,05:00:00,4,55,HAMMONTON,39.631673,-74.79946,Atlantic City Rail Line,075AAA,POINT (-74.79946 39.631673),#075AAA
4,1,1,1,05:13:00,05:13:00,5,9,ATCO,39.783547,-74.907588,Atlantic City Rail Line,075AAA,POINT (-74.907588 39.783547),#075AAA
5,1,1,1,05:20:00,05:20:00,6,71,LINDENWOLD,39.833809,-75.000314,Atlantic City Rail Line,075AAA,POINT (-75.000314 39.833809),#075AAA
6,1,1,1,05:33:00,05:33:00,7,28,CHERRY HILL,39.928447,-75.041661,Atlantic City Rail Line,075AAA,POINT (-75.041661 39.928447),#075AAA
7,1,1,1,05:40:00,05:40:00,8,43298,PENNSAUKEN TRANSIT CENTER,39.977769,-75.061796,Atlantic City Rail Line,075AAA,POINT (-75.061796 39.977769),#075AAA
8,1,1,1,06:04:00,06:04:00,9,1,30TH ST. PHL.,39.956565,-75.182327,Atlantic City Rail Line,075AAA,POINT (-75.182327 39.956565),#075AAA
432,2,4,49,24:05:00,24:05:00,1,40570,MEADOWLANDS SPORTS COMPLEX STATION,40.813053,-74.072114,BetMGM Meadowlands Rail Line,000000,POINT (-74.072114 40.813053),#000000
433,2,4,49,24:18:00,24:18:00,2,38174,FRANK R LAUTENBERG SECAUCUS LOWER LEVEL,40.761188,-74.075821,BetMGM Meadowlands Rail Line,000000,POINT (-74.075821 40.761188),#000000
434,2,4,49,24:30:00,24:30:00,3,63,HOBOKEN,40.734843,-74.028046,BetMGM Meadowlands Rail Line,000000,POINT (-74.028046 40.734843),#000000
649,3,6,93,08:24:00,08:24:00,1,54,HACKETTSTOWN,40.851444,-74.835352,Montclair-Boonton Line,E66859,POINT (-74.835352 40.851444),#E66859
650,3,6,93,08:35:00,08:35:00,2,93,MOUNT OLIVE,40.907376,-74.730653,Montclair-Boonton Line,E66859,POINT (-74.730653 40.907376),#E66859
651,3,6,93,08:40:00,08:40:00,3,101,NETCONG,40.897552,-74.707317,Montclair-Boonton Line,E66859,POINT (-74.707317 40.897552),#E66859
652,3,6,93,08:45:00,08:45:00,4,67,LAKE HOPATCONG,40.904219,-74.665697,Montclair-Boonton Line,E66859,POINT (-74.665697 40.904219),#E66859
653,3,6,93,08:49:00,08:49:00,5,39472,MOUNT ARLINGTON,40.89659,-74.632731,Montclair-Boonton Line,E66859,POINT (-74.632731 40.89659),#E66859
654,3,6,93,08:58:00,08:58:00,6,35,DOVER,40.883415,-74.555887,Montclair-Boonton Line,E66859,POINT (-74.555887 40.883415),#E66859
655,3,6,93,09:04:00,09:04:00,7,34,DENVILLE,40.8839,-74.481513,Montclair-Boonton Line,E66859,POINT (-74.481513 40.8839),#E66859
656,3,6,93,09:09:00,09:09:00,8,96,MOUNTAIN LAKES,40.885947,-74.433604,Montclair-Boonton Line,E66859,POINT (-74.433604 40.885947),#E66859
657,3,6,93,09:12:00,09:12:00,9,20,BOONTON,40.903378,-74.407736,Montclair-Boonton Line,E66859,POINT (-74.407736 40.903378),#E66859
658,3,6,93,09:19:00,09:19:00,10,147,TOWACO,40.922809,-74.343842,Montclair-Boonton Line,E66859,POINT (-74.343842 40.922809),#E66859
659,3,6,93,09:23:00,09:23:00,11,69,LINCOLN PARK,40.924138,-74.301826,Montclair-Boonton Line,E66859,POINT (-74.301826 40.924138),#E66859
660,3,6,93,09:28:00,09:28:00,12,98,MOUNTAIN VIEW,40.914402,-74.268158,Montclair-Boonton Line,E66859,POINT (-74.268158 40.914402),#E66859
661,3,6,93,09:31:00,09:31:00,13,39635,WAYNE/ROUTE 23 TRANSIT CENTER [RR],40.900254,-74.256971,Montclair-Boonton Line,E66859,POINT (-74.256971 40.900254),#E66859
662,3,6,93,09:34:00,09:34:00,14,72,LITTLE FALLS,40.880669,-74.235372,Montclair-Boonton Line,E66859,POINT (-74.235372 40.880669),#E66859
663,3,6,93,09:41:00,09:41:00,15,38081,MSU,40.869782,-74.197439,Montclair-Boonton Line,E66859,POINT (-74.197439 40.869782),#E66859
664,3,6,93,09:44:00,09:44:00,16,89,MONTCLAIR HEIGHTS,40.857536,-74.2025,Montclair-Boonton Line,E66859,POINT (-74.2025 40.857536),#E66859
665,3,6,93,09:46:00,09:46:00,17,95,MOUNTAIN AVENUE,40.848715,-74.205306,Montclair-Boonton Line,E66859,POINT (-74.205306 40.848715),#E66859
666,3,6,93,09:48:00,09:48:00,18,150,UPPER MONTCLAIR,40.842004,-74.209368,Montclair-Boonton Line,E66859,POINT (-74.209368 40.842004),#E66859
667,3,6,93,09:51:00,09:51:00,19,153,WATCHUNG AVENUE,40.829514,-74.206934,Montclair-Boonton Line,E66859,POINT (-74.206934 40.829514),#E66859
668,3,6,93,09:54:00,09:54:00,20,152,WALNUT STREET,40.817218,-74.20963,Montclair-Boonton Line,E66859,POINT (-74.20963 40.817218),#E66859
669,3,6,93,09:57:00,09:57:00,21,14,BAY STREET,40.808178,-74.208681,Montclair-Boonton Line,E66859,POINT (-74.208681 40.808178),#E66859
670,3,6,93,09:59:00,09:59:00,22,50,GLEN RIDGE,40.80059,-74.204655,Montclair-Boonton Line,E66859,POINT (-74.204655 40.80059),#E66859
671,3,6,93,10:02:00,10:02:00,23,19,BLOOMFIELD,40.792709,-74.200043,Montclair-Boonton Line,E66859,POINT (-74.200043 40.792709),#E66859
672,3,6,93,10:05:00,10:05:00,24,154,WATSESSING AVENUE,40.782743,-74.198451,Montclair-Boonton Line,E66859,POINT (-74.198451 40.782743),#E66859
673,3,6,93,10:12:00,10:12:00,25,106,NEWARK BROAD ST,40.747621,-74.171943,Montclair-Boonton Line,E66859,POINT (-74.171943 40.747621),#E66859
674,3,6,93,10:30:00,10:30:00,26,63,HOBOKEN,40.734843,-74.028046,Montclair-Boonton Line,E66859,POINT (-74.028046 40.734843),#E66859
1058,4,5,112,06:33:00,06:33:00,1,38081,MSU,40.869782,-74.197439,Montclair-Boonton Line,E66859,POINT (-74.197439 40.869782),#E66859
1059,4,5,112,06:36:00,06:36:00,2,89,MONTCLAIR HEIGHTS,40.857536,-74.2025,Montclair-Boonton Line,E66859,POINT (-74.2025 40.857536),#E66859
1060,4,5,112,06:38:00,06:38:00,3,95,MOUNTAIN AVENUE,40.848715,-74.205306,Montclair-Boonton Line,E66859,POINT (-74.205306 40.848715),#E66859
1061,4,5,112,06:40:00,06:40:00,4,150,UPPER MONTCLAIR,40.842004,-74.209368,Montclair-Boonton Line,E66859,POINT (-74.209368 40.842004),#E66859
1062,4,5,112,06:42:00,06:42:00,5,153,WATCHUNG AVENUE,40.829514,-74.206934,Montclair-Boonton Line,E66859,POINT (-74.206934 40.829514),#E66859
1063,4,5,112,06:45:00,06:45:00,6,152,WALNUT STREET,40.817218,-74.20963,Montclair-Boonton Line,E66859,POINT (-74.20963 40.817218),#E66859
1064,4,5,112,06:49:00,06:49:00,7,14,BAY STREET,40.808178,-74.208681,Montclair-Boonton Line,E66859,POINT (-74.208681 40.808178),#E66859
1065,4,5,112,06:52:00,06:52:00,8,50,GLEN RIDGE,40.80059,-74.204655,Montclair-Boonton Line,E66859,POINT (-74.204655 40.80059),#E66859
1066,4,5,112,06:54:00,06:54:00,9,19,BLOOMFIELD,40.792709,-74.200043,Montclair-Boonton Line,E66859,POINT (-74.200043 40.792709),#E66859
1067,4,5,112,06:56:00,06:56:00,10,154,WATSESSING AVENUE,40.782743,-74.198451,Montclair-Boonton Line,E66859,POINT (-74.198451 40.782743),#E66859
1068,4,5,112,07:03:00,07:03:00,11,106,NEWARK BROAD ST,40.747621,-74.171943,Montclair-Boonton Line,E66859,POINT (-74.171943 40.747621),#E66859
1069,4,5,112,07:14:00,07:14:00,12,38187,FRANK R LAUTENBERG SECAUCUS UPPER LEVEL,40.761188,-74.075821,Montclair-Boonton Line,E66859,POINT (-74.075821 40.761188),#E66859
1070,4,5,112,07:28:00,07:28:00,13,105,NEW YORK PENN STATION,40.750046,-73.992358,Montclair-Boonton Line,E66859,POINT (-73.992358 40.750046),#E66859
3186,5,11,293,05:48:00,05:48:00,1,37001,WEST SIDE AVENUE LIGHT RAIL STATION,40.714548,-74.087581,Hudson-Bergen Light Rail,008080,POINT (-74.087581 40.714548),#008080
3187,5,11,293,05:50:00,05:50:00,2,37000,MLK DRIVE LIGHT RAIL STATION,40.712008,-74.077323,Hudson-Bergen Light Rail,008080,POINT (-74.077323 40.712008),#008080
3188,5,11,293,05:52:00,05:52:00,3,36999,GARFIELD AVENUE LIGHT RAIL STATION,40.710509,-74.07112,Hudson-Bergen Light Rail,008080,POINT (-74.07112 40.710509),#008080
3189,5,11,293,05:55:00,05:55:00,4,36998,LIBERTY STATE PARK-RIDE LIGHT RAIL STA,40.710378,-74.055812,Hudson-Bergen Light Rail,008080,POINT (-74.055812 40.710378),#008080
3190,5,11,293,05:58:00,05:58:00,5,36997,JERSEY AVENUE LIGHT RAIL STATION,40.714978,-74.048491,Hudson-Bergen Light Rail,008080,POINT (-74.048491 40.714978),#008080
3191,5,11,293,05:59:00,05:59:00,6,36996,MARIN BOULEVARD LIGHT RAIL STATION,40.714428,-74.043241,Hudson-Bergen Light Rail,008080,POINT (-74.043241 40.714428),#008080
3192,5,11,293,06:02:00,06:02:00,7,36995,ESSEX STREET LIGHT RAIL STATION,40.712838,-74.036082,Hudson-Bergen Light Rail,008080,POINT (-74.036082 40.712838),#008080
3193,5,11,293,06:04:00,06:04:00,8,36994,EXCHANGE PLACE LIGHT RAIL STATION,40.716009,-74.034092,Hudson-Bergen Light Rail,008080,POINT (-74.034092 40.716009),#008080
3194,5,11,293,06:06:00,06:06:00,9,37376,HARBORSIDE LIGHT RAIL STATION,40.719519,-74.034003,Hudson-Bergen Light Rail,008080,POINT (-74.034003 40.719519),#008080
3195,5,11,293,06:08:00,06:08:00,10,37377,HARSIMUS COVE LIGHT RAIL STATION,40.722668,-74.037281,Hudson-Bergen Light Rail,008080,POINT (-74.037281 40.722668),#008080
3196,5,11,293,06:11:00,06:11:00,11,37378,NEWPORT LIGHT RAIL STATION,40.726819,-74.036233,Hudson-Bergen Light Rail,008080,POINT (-74.036233 40.726819),#008080
3197,5,11,293,06:16:00,06:16:00,12,38441,2ND STREET LIGHT RAIL STATION,40.74174,-74.042821,Hudson-Bergen Light Rail,008080,POINT (-74.042821 40.74174),#008080
3198,5,11,293,06:18:00,06:18:00,13,38442,9TH STREET LIGHT RAIL STATION,40.748867,-74.038522,Hudson-Bergen Light Rail,008080,POINT (-74.038522 40.748867),#008080
3199,5,11,293,06:21:00,06:21:00,14,17699,LINCOLN HARBOR LIGHT RAIL STATION,40.761399,-74.024,Hudson-Bergen Light Rail,008080,POINT (-74.024 40.761399),#008080
3200,5,11,293,06:24:00,06:24:00,15,9878,PORT IMPERIAL HBLR STATION,40.775919,-74.012921,Hudson-Bergen Light Rail,008080,POINT (-74.012921 40.775919),#008080
3201,5,11,293,06:26:00,06:26:00,16,38578,BERGENLINE AVE,40.782225,-74.022271,Hudson-Bergen Light Rail,008080,POINT (-74.022271 40.782225),#008080
3202,5,11,293,06:28:00,06:28:00,17,38579,TONNELLE AVENUE LIGHT RAIL STATION,40.78733,-74.031263,Hudson-Bergen Light Rail,008080,POINT (-74.031263 40.78733),#008080
16566,6,1,1236,07:07:00,07:07:00,1,144,SUFFERN,41.11354,-74.153442,Main/Bergen County Line,FFD411,POINT (-74.153442 41.11354),#FFD411
16567,6,1,1236,07:10:00,07:10:00,2,78,MAHWAH,41.094416,-74.14662,Main/Bergen County Line,FFD411,POINT (-74.14662 41.094416),#FFD411
16568,6,1,1236,07:13:00,07:13:00,3,38417,RAMSEY ROUTE 17 STATION,41.07513,-74.145485,Main/Bergen County Line,FFD411,POINT (-74.145485 41.07513),#FFD411
16569,6,1,1236,07:17:00,07:17:00,4,128,RAMSEY,41.056422,-74.141877,Main/Bergen County Line,FFD411,POINT (-74.141877 41.056422),#FFD411
16570,6,1,1236,07:20:00,07:20:00,5,3,ALLENDALE,41.030902,-74.130957,Main/Bergen County Line,FFD411,POINT (-74.130957 41.030902),#FFD411
16571,6,1,1236,07:23:00,07:23:00,6,151,WALDWICK,41.012734,-74.123412,Main/Bergen County Line,FFD411,POINT (-74.123412 41.012734),#FFD411
16572,6,1,1236,07:27:00,07:27:00,7,64,HOHOKUS,40.997369,-74.113521,Main/Bergen County Line,FFD411,POINT (-74.113521 40.997369),#FFD411
16573,6,1,1236,07:30:00,07:30:00,8,131,RIDGEWOOD,40.980629,-74.120592,Main/Bergen County Line,FFD411,POINT (-74.120592 40.980629),#FFD411
16574,6,1,1236,07:33:00,07:33:00,9,52,GLEN ROCK MAIN LINE,40.962206,-74.133485,Main/Bergen County Line,FFD411,POINT (-74.133485 40.962206),#FFD411
16575,6,1,1236,07:37:00,07:37:00,10,58,HAWTHORNE,40.942539,-74.152411,Main/Bergen County Line,FFD411,POINT (-74.152411 40.942539),#FFD411
16576,6,1,1236,07:41:00,07:41:00,11,116,PATERSON,40.914887,-74.16733,Main/Bergen County Line,FFD411,POINT (-74.16733 40.914887),#FFD411
16577,6,1,1236,07:48:00,07:48:00,12,29,CLIFTON,40.867998,-74.153206,Main/Bergen County Line,FFD411,POINT (-74.153206 40.867998),#FFD411
16578,6,1,1236,07:51:00,07:51:00,13,115,PASSAIC,40.849411,-74.133933,Main/Bergen County Line,FFD411,POINT (-74.133933 40.849411),#FFD411
16579,6,1,1236,07:54:00,07:54:00,14,33,DELAWANNA,40.831369,-74.131262,Main/Bergen County Line,FFD411,POINT (-74.131262 40.831369),#FFD411
16580,6,1,1236,07:57:00,07:57:00,15,75,LYNDHURST,40.816473,-74.124164,Main/Bergen County Line,FFD411,POINT (-74.124164 40.816473),#FFD411
16581,6,1,1236,08:00:00,08:00:00,16,66,KINGSLAND,40.810121,-74.117334,Main/Bergen County Line,FFD411,POINT (-74.117334 40.810121),#FFD411
16582,6,1,1236,08:07:00,08:07:00,17,38174,FRANK R LAUTENBERG SECAUCUS LOWER LEVEL,40.761188,-74.075821,Main/Bergen County Line,FFD411,POINT (-74.075821 40.761188),#FFD411
16583,6,1,1236,08:19:00,08:19:00,18,63,HOBOKEN,40.734843,-74.028046,Main/Bergen County Line,FFD411,POINT (-74.028046 40.734843),#FFD411
19910,7,1,1459,04:41:00,04:41:00,1,123,PORT JERVIS,41.374899,-74.694622,Port Jervis Line,FFD411,POINT (-74.694622 41.374899),#FFD411
19911,7,1,1459,05:01:00,05:01:00,2,113,OTISVILLE,41.471784,-74.529212,Port Jervis Line,FFD411,POINT (-74.529212 41.471784),#FFD411
19912,7,1,1459,05:12:00,05:12:00,3,86,MIDDLETOWN NY,41.457488,-74.37039,Port Jervis Line,FFD411,POINT (-74.37039 41.457488),#FFD411
19913,7,1,1459,05:19:00,05:19:00,4,26,CAMPBELL HALL,41.450917,-74.266554,Port Jervis Line,FFD411,POINT (-74.266554 41.450917),#FFD411
19914,7,1,1459,05:31:00,05:31:00,5,135,SALISBURY MILLS-CORNWALL,41.437073,-74.101871,Port Jervis Line,FFD411,POINT (-74.101871 41.437073),#FFD411
19915,7,1,1459,05:46:00,05:46:00,6,57,HARRIMAN,41.293354,-74.13987,Port Jervis Line,FFD411,POINT (-74.13987 41.293354),#FFD411
19916,7,1,1459,05:56:00,05:56:00,7,149,TUXEDO,41.194208,-74.18446,Port Jervis Line,FFD411,POINT (-74.18446 41.194208),#FFD411
19917,7,1,1459,06:01:00,06:01:00,8,137,SLOATSBURG,41.157138,-74.191307,Port Jervis Line,FFD411,POINT (-74.191307 41.157138),#FFD411
19918,7,1,1459,06:08:00,06:08:00,9,144,SUFFERN,41.11354,-74.153442,Port Jervis Line,FFD411,POINT (-74.153442 41.11354),#FFD411
19919,7,1,1459,06:11:00,06:11:00,10,78,MAHWAH,41.094416,-74.14662,Port Jervis Line,FFD411,POINT (-74.14662 41.094416),#FFD411
19920,7,1,1459,06:14:00,06:14:00,11,38417,RAMSEY ROUTE 17 STATION,41.07513,-74.145485,Port Jervis Line,FFD411,POINT (-74.145485 41.07513),#FFD411
19921,7,1,1459,06:17:00,06:17:00,12,128,RAMSEY,41.056422,-74.141877,Port Jervis Line,FFD411,POINT (-74.141877 41.056422),#FFD411
19922,7,1,1459,06:20:00,06:20:00,13,3,ALLENDALE,41.030902,-74.130957,Port Jervis Line,FFD411,POINT (-74.130957 41.030902),#FFD411
19923,7,1,1459,06:23:00,06:23:00,14,151,WALDWICK,41.012734,-74.123412,Port Jervis Line,FFD411,POINT (-74.123412 41.012734),#FFD411
19924,7,1,1459,06:27:00,06:27:00,15,64,HOHOKUS,40.997369,-74.113521,Port Jervis Line,FFD411,POINT (-74.113521 40.997369),#FFD411
19925,7,1,1459,06:30:00,06:30:00,16,131,RIDGEWOOD,40.980629,-74.120592,Port Jervis Line,FFD411,POINT (-74.120592 40.980629),#FFD411
19926,7,1,1459,06:33:00,06:33:00,17,52,GLEN ROCK MAIN LINE,40.962206,-74.133485,Port Jervis Line,FFD411,POINT (-74.133485 40.962206),#FFD411
19927,7,1,1459,06:37:00,06:37:00,18,58,HAWTHORNE,40.942539,-74.152411,Port Jervis Line,FFD411,POINT (-74.152411 40.942539),#FFD411
19928,7,1,1459,06:42:00,06:42:00,19,116,PATERSON,40.914887,-74.16733,Port Jervis Line,FFD411,POINT (-74.16733 40.914887),#FFD411
19929,7,1,1459,06:48:00,06:48:00,20,29,CLIFTON,40.867998,-74.153206,Port Jervis Line,FFD411,POINT (-74.153206 40.867998),#FFD411
19930,7,1,1459,06:51:00,06:51:00,21,115,PASSAIC,40.849411,-74.133933,Port Jervis Line,FFD411,POINT (-74.133933 40.849411),#FFD411
19931,7,1,1459,06:54:00,06:54:00,22,33,DELAWANNA,40.831369,-74.131262,Port Jervis Line,FFD411,POINT (-74.131262 40.831369),#FFD411
19932,7,1,1459,06:57:00,06:57:00,23,75,LYNDHURST,40.816473,-74.124164,Port Jervis Line,FFD411,POINT (-74.124164 40.816473),#FFD411
19933,7,1,1459,06:59:00,06:59:00,24,66,KINGSLAND,40.810121,-74.117334,Port Jervis Line,FFD411,POINT (-74.117334 40.810121),#FFD411
19934,7,1,1459,07:07:00,07:07:00,25,38174,FRANK R LAUTENBERG SECAUCUS LOWER LEVEL,40.761188,-74.075821,Port Jervis Line,FFD411,POINT (-74.075821 40.761188),#FFD411
19935,7,1,1459,07:19:00,07:19:00,26,63,HOBOKEN,40.734843,-74.028046,Port Jervis Line,FFD411,POINT (-74.028046 40.734843),#FFD411
21994,8,6,1589,11:58:00,11:58:00,1,54,HACKETTSTOWN,40.851444,-74.835352,Morris & Essex Line,08A652,POINT (-74.835352 40.851444),#08A652
21995,8,6,1589,12:09:00,12:09:00,2,93,MOUNT OLIVE,40.907376,-74.730653,Morris & Essex Line,08A652,POINT (-74.730653 40.907376),#08A652
21996,8,6,1589,12:13:00,12:13:00,3,101,NETCONG,40.897552,-74.707317,Morris & Essex Line,08A652,POINT (-74.707317 40.897552),#08A652
21997,8,6,1589,12:19:00,12:19:00,4,67,LAKE HOPATCONG,40.904219,-74.665697,Morris & Essex Line,08A652,POINT (-74.665697 40.904219),#08A652
21998,8,6,1589,12:23:00,12:23:00,5,39472,MOUNT ARLINGTON,40.89659,-74.632731,Morris & Essex Line,08A652,POINT (-74.632731 40.89659),#08A652
21999,8,6,1589,12:32:00,12:32:00,6,35,DOVER,40.883415,-74.555887,Morris & Essex Line,08A652,POINT (-74.555887 40.883415),#08A652
22000,8,6,1589,12:40:00,12:40:00,7,34,DENVILLE,40.8839,-74.481513,Morris & Essex Line,08A652,POINT (-74.481513 40.8839),#08A652
22001,8,6,1589,12:42:00,12:42:00,8,94,MOUNT TABOR,40.875904,-74.481915,Morris & Essex Line,08A652,POINT (-74.481915 40.875904),#08A652
22002,8,6,1589,12:49:00,12:49:00,9,91,MORRIS PLAINS,40.828637,-74.478197,Morris & Essex Line,08A652,POINT (-74.478197 40.828637),#08A652
22003,8,6,1589,12:52:00,12:52:00,10,92,MORRISTOWN,40.797113,-74.474086,Morris & Essex Line,08A652,POINT (-74.474086 40.797113),#08A652
22004,8,6,1589,12:56:00,12:56:00,11,30,CONVENT,40.779038,-74.443435,Morris & Essex Line,08A652,POINT (-74.443435 40.779038),#08A652
22005,8,6,1589,13:00:00,13:00:00,12,77,MADISON,40.757028,-74.415105,Morris & Essex Line,08A652,POINT (-74.415105 40.757028),#08A652
22006,8,6,1589,13:04:00,13:04:00,13,27,CHATHAM,40.740137,-74.384812,Morris & Essex Line,08A652,POINT (-74.384812 40.740137),#08A652
22007,8,6,1589,13:11:00,13:11:00,14,145,SUMMIT,40.716549,-74.357807,Morris & Essex Line,08A652,POINT (-74.357807 40.716549),#08A652
22008,8,6,1589,13:15:00,13:15:00,15,136,SHORT HILLS,40.725249,-74.323754,Morris & Essex Line,08A652,POINT (-74.323754 40.725249),#08A652
22009,8,6,1589,13:18:00,13:18:00,16,87,MILLBURN,40.725622,-74.303755,Morris & Essex Line,08A652,POINT (-74.303755 40.725622),#08A652
22010,8,6,1589,13:21:00,13:21:00,17,81,MAPLEWOOD,40.731149,-74.275427,Morris & Essex Line,08A652,POINT (-74.275427 40.731149),#08A652
22011,8,6,1589,13:25:00,13:25:00,18,140,SOUTH ORANGE,40.745952,-74.260538,Morris & Essex Line,08A652,POINT (-74.260538 40.745952),#08A652
22012,8,6,1589,13:27:00,13:27:00,19,97,MOUNTAIN STATION,40.755365,-74.253024,Morris & Essex Line,08A652,POINT (-74.253024 40.755365),#08A652
22013,8,6,1589,13:29:00,13:29:00,20,61,HIGHLAND AVENUE,40.766863,-74.243744,Morris & Essex Line,08A652,POINT (-74.243744 40.766863),#08A652
22014,8,6,1589,13:32:00,13:32:00,21,112,ORANGE,40.771883,-74.233103,Morris & Essex Line,08A652,POINT (-74.233103 40.771883),#08A652
22015,8,6,1589,13:34:00,13:34:00,22,23,BRICK CHURCH,40.765134,-74.218612,Morris & Essex Line,08A652,POINT (-74.218612 40.765134),#08A652
22016,8,6,1589,13:37:00,13:37:00,23,37,EAST ORANGE,40.760977,-74.210464,Morris & Essex Line,08A652,POINT (-74.210464 40.760977),#08A652
22017,8,6,1589,13:42:00,13:42:00,24,106,NEWARK BROAD ST,40.747621,-74.171943,Morris & Essex Line,08A652,POINT (-74.171943 40.747621),#08A652
22018,8,6,1589,14:00:00,14:00:00,25,63,HOBOKEN,40.734843,-74.028046,Morris & Essex Line,08A652,POINT (-74.028046 40.734843),#08A652
25123,9,6,1779,09:55:00,09:55:00,1,49,GLADSTONE,40.720284,-74.666371,Gladstone Branch,A4C9AA,POINT (-74.666371 40.720284),#A4C9AA
25124,9,6,1779,09:58:00,09:58:00,2,117,PEAPACK,40.708794,-74.658469,Gladstone Branch,A4C9AA,POINT (-74.658469 40.708794),#A4C9AA
25125,9,6,1779,10:02:00,10:02:00,3,45,FAR HILLS,40.68571,-74.633734,Gladstone Branch,A4C9AA,POINT (-74.633734 40.68571),#A4C9AA
25126,9,6,1779,10:10:00,10:10:00,4,18,BERNARDSVILLE,40.716845,-74.571023,Gladstone Branch,A4C9AA,POINT (-74.571023 40.716845),#A4C9AA
25127,9,6,1779,10:14:00,10:14:00,5,12,BASKING RIDGE,40.711378,-74.55527,Gladstone Branch,A4C9AA,POINT (-74.55527 40.711378),#A4C9AA
25128,9,6,1779,10:17:00,10:17:00,6,76,LYONS,40.684844,-74.54947,Gladstone Branch,A4C9AA,POINT (-74.54947 40.684844),#A4C9AA
25129,9,6,1779,10:20:00,10:20:00,7,88,MILLINGTON,40.673513,-74.523606,Gladstone Branch,A4C9AA,POINT (-74.523606 40.673513),#A4C9AA
25130,9,6,1779,10:23:00,10:23:00,8,143,STIRLING,40.674579,-74.493723,Gladstone Branch,A4C9AA,POINT (-74.493723 40.674579),#A4C9AA
25131,9,6,1779,10:26:00,10:26:00,9,48,GILLETTE,40.678251,-74.468317,Gladstone Branch,A4C9AA,POINT (-74.468317 40.678251),#A4C9AA
25132,9,6,1779,10:30:00,10:30:00,10,17,BERKELEY HEIGHTS,40.682345,-74.442649,Gladstone Branch,A4C9AA,POINT (-74.442649 40.682345),#A4C9AA
25133,9,6,1779,10:34:00,10:34:00,11,99,MURRAY HILL,40.695068,-74.403134,Gladstone Branch,A4C9AA,POINT (-74.403134 40.695068),#A4C9AA
25134,9,6,1779,10:38:00,10:38:00,12,104,NEW PROVIDENCE,40.712022,-74.386501,Gladstone Branch,A4C9AA,POINT (-74.386501 40.712022),#A4C9AA
25135,9,6,1779,10:42:00,10:50:00,13,145,SUMMIT,40.716549,-74.357807,Gladstone Branch,A4C9AA,POINT (-74.357807 40.716549),#A4C9AA
25136,9,6,1779,10:54:00,10:54:00,14,136,SHORT HILLS,40.725249,-74.323754,Gladstone Branch,A4C9AA,POINT (-74.323754 40.725249),#A4C9AA
25137,9,6,1779,10:57:00,10:57:00,15,87,MILLBURN,40.725622,-74.303755,Gladstone Branch,A4C9AA,POINT (-74.303755 40.725622),#A4C9AA
25138,9,6,1779,11:00:00,11:00:00,16,81,MAPLEWOOD,40.731149,-74.275427,Gladstone Branch,A4C9AA,POINT (-74.275427 40.731149),#A4C9AA
25139,9,6,1779,11:03:00,11:03:00,17,140,SOUTH ORANGE,40.745952,-74.260538,Gladstone Branch,A4C9AA,POINT (-74.260538 40.745952),#A4C9AA
25140,9,6,1779,11:05:00,11:05:00,18,97,MOUNTAIN STATION,40.755365,-74.253024,Gladstone Branch,A4C9AA,POINT (-74.253024 40.755365),#A4C9AA
25141,9,6,1779,11:07:00,11:07:00,19,61,HIGHLAND AVENUE,40.766863,-74.243744,Gladstone Branch,A4C9AA,POINT (-74.243744 40.766863),#A4C9AA
25142,9,6,1779,11:09:00,11:09:00,20,112,ORANGE,40.771883,-74.233103,Gladstone Branch,A4C9AA,POINT (-74.233103 40.771883),#A4C9AA
25143,9,6,1779,11:12:00,11:12:00,21,23,BRICK CHURCH,40.765134,-74.218612,Gladstone Branch,A4C9AA,POINT (-74.218612 40.765134),#A4C9AA
25144,9,6,1779,11:14:00,11:14:00,22,37,EAST ORANGE,40.760977,-74.210464,Gladstone Branch,A4C9AA,POINT (-74.210464 40.760977),#A4C9AA
25145,9,6,1779,11:19:00,11:19:00,23,106,NEWARK BROAD ST,40.747621,-74.171943,Gladstone Branch,A4C9AA,POINT (-74.171943 40.747621),#A4C9AA
25146,9,6,1779,11:38:00,11:38:00,24,63,HOBOKEN,40.734843,-74.028046,Gladstone Branch,A4C9AA,POINT (-74.028046 40.734843),#A4C9AA
29892,10,6,2134,24:14:00,24:14:00,1,105,NEW YORK PENN STATION,40.750046,-73.992358,Northeast Corridor,DD3439,POINT (-73.992358 40.750046),#DD3439
29893,10,6,2134,24:23:00,24:23:00,2,38187,FRANK R LAUTENBERG SECAUCUS UPPER LEVEL,40.761188,-74.075821,Northeast Corridor,DD3439,POINT (-74.075821 40.761188),#DD3439
29894,10,6,2134,24:32:00,24:32:00,3,107,NEWARK PENN STATION,40.734221,-74.164554,Northeast Corridor,DD3439,POINT (-74.164554 40.734221),#DD3439
29895,10,6,2134,24:38:00,24:38:00,4,37953,NEWARK AIRPORT RAILROAD STATION,40.704415,-74.190717,Northeast Corridor,DD3439,POINT (-74.190717 40.704415),#DD3439
29896,10,6,2134,24:41:00,24:41:00,5,109,NORTH ELIZABETH,40.680265,-74.206165,Northeast Corridor,DD3439,POINT (-74.206165 40.680265),#DD3439
29897,10,6,2134,24:44:00,24:44:00,6,41,ELIZABETH,40.667857,-74.215174,Northeast Corridor,DD3439,POINT (-74.215174 40.667857),#DD3439
29898,10,6,2134,24:49:00,24:49:00,7,70,LINDEN,40.629485,-74.251772,Northeast Corridor,DD3439,POINT (-74.251772 40.629485),#DD3439
29899,10,6,2134,24:53:00,24:53:00,8,127,RAHWAY,40.606338,-74.276692,Northeast Corridor,DD3439,POINT (-74.276692 40.606338),#DD3439
29900,10,6,2134,24:59:00,24:59:00,9,83,METROPARK,40.56864,-74.329394,Northeast Corridor,DD3439,POINT (-74.329394 40.56864),#DD3439
29901,10,6,2134,25:04:00,25:04:00,10,84,METUCHEN,40.540736,-74.360671,Northeast Corridor,DD3439,POINT (-74.360671 40.540736),#DD3439
29902,10,6,2134,25:09:00,25:09:00,11,38,EDISON STATION,40.519148,-74.410972,Northeast Corridor,DD3439,POINT (-74.410972 40.519148),#DD3439
29903,10,6,2134,25:13:00,25:13:00,12,103,NEW BRUNSWICK,40.497278,-74.445751,Northeast Corridor,DD3439,POINT (-74.445751 40.497278),#DD3439
29904,10,6,2134,25:17:00,25:17:00,13,32906,JERSEY AVE.,40.476912,-74.467363,Northeast Corridor,DD3439,POINT (-74.467363 40.476912),#DD3439
29905,10,6,2134,25:30:00,25:30:00,14,125,PRINCETON JCT.,40.316316,-74.623753,Northeast Corridor,DD3439,POINT (-74.623753 40.316316),#DD3439
29906,10,6,2134,25:37:00,25:37:00,15,32905,HAMILTON,40.255309,-74.70412,Northeast Corridor,DD3439,POINT (-74.70412 40.255309),#DD3439
29907,10,6,2134,25:52:00,25:52:00,16,148,TRENTON TRANSIT CENTER,40.218515,-74.753926,Northeast Corridor,DD3439,POINT (-74.753926 40.218515),#DD3439
33682,11,32,2414,16:27:00,16:27:00,1,105,NEW YORK PENN STATION,40.750046,-73.992358,North Jersey Coast Line,03A3DF,POINT (-73.992358 40.750046),#03A3DF
33683,11,32,2414,16:36:00,16:36:00,2,38187,FRANK R LAUTENBERG SECAUCUS UPPER LEVEL,40.761188,-74.075821,North Jersey Coast Line,03A3DF,POINT (-74.075821 40.761188),#03A3DF
33684,11,32,2414,16:46:00,16:46:00,3,107,NEWARK PENN STATION,40.734221,-74.164554,North Jersey Coast Line,03A3DF,POINT (-74.164554 40.734221),#03A3DF
33685,11,32,2414,17:03:00,17:03:00,4,11,AVENEL,40.57762,-74.27753,North Jersey Coast Line,03A3DF,POINT (-74.27753 40.57762),#03A3DF
33686,11,32,2414,17:07:00,17:07:00,5,158,WOODBRIDGE,40.55661,-74.277751,North Jersey Coast Line,03A3DF,POINT (-74.277751 40.55661),#03A3DF
33687,11,32,2414,17:13:00,17:13:00,6,119,PERTH AMBOY,40.509398,-74.273752,North Jersey Coast Line,03A3DF,POINT (-74.273752 40.509398),#03A3DF
33688,11,32,2414,17:18:00,17:18:00,7,139,SOUTH AMBOY,40.484308,-74.28014,North Jersey Coast Line,03A3DF,POINT (-74.28014 40.484308),#03A3DF
33689,11,32,2414,17:26:00,17:26:00,8,37169,ABERDEEN-MATAWAN,40.420161,-74.223702,North Jersey Coast Line,03A3DF,POINT (-74.223702 40.420161),#03A3DF
33690,11,32,2414,17:30:00,17:30:00,9,59,HAZLET,40.415385,-74.190393,North Jersey Coast Line,03A3DF,POINT (-74.190393 40.415385),#03A3DF
33691,11,32,2414,17:36:00,17:36:00,10,85,MIDDLETOWN NJ,40.38978,-74.116131,North Jersey Coast Line,03A3DF,POINT (-74.116131 40.38978),#03A3DF
33692,11,32,2414,17:42:00,17:42:00,11,130,RED BANK,40.348284,-74.074538,North Jersey Coast Line,03A3DF,POINT (-74.074538 40.348284),#03A3DF
33693,11,32,2414,17:47:00,17:47:00,12,73,LITTLE SILVER,40.326715,-74.041054,North Jersey Coast Line,03A3DF,POINT (-74.041054 40.326715),#03A3DF
33694,11,32,2414,17:50:00,17:50:00,13,31696,MONMOUTH PARK,40.313425,-74.015172,North Jersey Coast Line,03A3DF,POINT (-74.015172 40.313425),#03A3DF
33695,11,32,2414,17:54:00,17:54:00,14,74,LONG BRANCH,40.297145,-73.988331,North Jersey Coast Line,03A3DF,POINT (-73.988331 40.297145),#03A3DF
33696,11,32,2414,17:59:00,17:59:00,15,40,ELBERON,40.265292,-73.99762,North Jersey Coast Line,03A3DF,POINT (-73.99762 40.265292),#03A3DF
33697,11,32,2414,18:03:00,18:03:00,16,4,ALLENHURST,40.237659,-74.006769,North Jersey Coast Line,03A3DF,POINT (-74.006769 40.237659),#03A3DF
33698,11,32,2414,18:07:00,18:07:00,17,8,ASBURY PARK,40.215359,-74.014786,North Jersey Coast Line,03A3DF,POINT (-74.014786 40.215359),#03A3DF
33699,11,32,2414,18:10:00,18:10:00,18,22,BRADLEY BEACH,40.203751,-74.018891,North Jersey Coast Line,03A3DF,POINT (-74.018891 40.203751),#03A3DF
33700,11,32,2414,18:14:00,18:14:00,19,15,BELMAR,40.18059,-74.027301,North Jersey Coast Line,03A3DF,POINT (-74.027301 40.18059),#03A3DF
33701,11,32,2414,18:18:00,18:18:00,20,141,SPRING LAKE,40.150557,-74.035481,North Jersey Coast Line,03A3DF,POINT (-74.035481 40.150557),#03A3DF
33702,11,32,2414,18:22:00,18:22:00,21,79,MANASQUAN,40.120573,-74.047688,North Jersey Coast Line,03A3DF,POINT (-74.047688 40.120573),#03A3DF
33703,11,32,2414,18:27:00,18:27:00,22,122,POINT PLEASANT,40.092718,-74.048191,North Jersey Coast Line,03A3DF,POINT (-74.048191 40.092718),#03A3DF
33704,11,32,2414,18:35:00,18:35:00,23,13,BAY HEAD,40.077178,-74.046183,North Jersey Coast Line,03A3DF,POINT (-74.046183 40.077178),#03A3DF
35779,12,5,2566,16:47:00,16:47:00,1,105,NEW YORK PENN STATION,40.750046,-73.992358,North Jersey Coast Line,03A3DF,POINT (-73.992358 40.750046),#03A3DF
35780,12,5,2566,16:56:00,16:56:00,2,38187,FRANK R LAUTENBERG SECAUCUS UPPER LEVEL,40.761188,-74.075821,North Jersey Coast Line,03A3DF,POINT (-74.075821 40.761188),#03A3DF
35781,12,5,2566,17:06:00,17:06:00,3,107,NEWARK PENN STATION,40.734221,-74.164554,North Jersey Coast Line,03A3DF,POINT (-74.164554 40.734221),#03A3DF
35782,12,5,2566,17:19:00,17:19:00,4,127,RAHWAY,40.606338,-74.276692,North Jersey Coast Line,03A3DF,POINT (-74.276692 40.606338),#03A3DF
35783,12,5,2566,17:25:00,17:25:00,5,11,AVENEL,40.57762,-74.27753,North Jersey Coast Line,03A3DF,POINT (-74.27753 40.57762),#03A3DF
35784,12,5,2566,17:29:00,17:29:00,6,158,WOODBRIDGE,40.55661,-74.277751,North Jersey Coast Line,03A3DF,POINT (-74.277751 40.55661),#03A3DF
35785,12,5,2566,17:35:00,17:35:00,7,119,PERTH AMBOY,40.509398,-74.273752,North Jersey Coast Line,03A3DF,POINT (-74.273752 40.509398),#03A3DF
35786,12,5,2566,17:40:00,17:40:00,8,139,SOUTH AMBOY,40.484308,-74.28014,North Jersey Coast Line,03A3DF,POINT (-74.28014 40.484308),#03A3DF
35787,12,5,2566,17:49:00,17:49:00,9,37169,ABERDEEN-MATAWAN,40.420161,-74.223702,North Jersey Coast Line,03A3DF,POINT (-74.223702 40.420161),#03A3DF
35788,12,5,2566,17:53:00,17:53:00,10,59,HAZLET,40.415385,-74.190393,North Jersey Coast Line,03A3DF,POINT (-74.190393 40.415385),#03A3DF
35789,12,5,2566,17:59:00,17:59:00,11,85,MIDDLETOWN NJ,40.38978,-74.116131,North Jersey Coast Line,03A3DF,POINT (-74.116131 40.38978),#03A3DF
35790,12,5,2566,18:05:00,18:05:00,12,130,RED BANK,40.348284,-74.074538,North Jersey Coast Line,03A3DF,POINT (-74.074538 40.348284),#03A3DF
35791,12,5,2566,18:09:00,18:09:00,13,73,LITTLE SILVER,40.326715,-74.041054,North Jersey Coast Line,03A3DF,POINT (-74.041054 40.326715),#03A3DF
35792,12,5,2566,18:15:00,18:15:00,14,74,LONG BRANCH,40.297145,-73.988331,North Jersey Coast Line,03A3DF,POINT (-73.988331 40.297145),#03A3DF
35793,12,5,2566,18:20:00,18:20:00,15,40,ELBERON,40.265292,-73.99762,North Jersey Coast Line,03A3DF,POINT (-73.99762 40.265292),#03A3DF
35794,12,5,2566,18:24:00,18:24:00,16,4,ALLENHURST,40.237659,-74.006769,North Jersey Coast Line,03A3DF,POINT (-74.006769 40.237659),#03A3DF
35795,12,5,2566,18:28:00,18:28:00,17,8,ASBURY PARK,40.215359,-74.014786,North Jersey Coast Line,03A3DF,POINT (-74.014786 40.215359),#03A3DF
35796,12,5,2566,18:31:00,18:31:00,18,22,BRADLEY BEACH,40.203751,-74.018891,North Jersey Coast Line,03A3DF,POINT (-74.018891 40.203751),#03A3DF
35797,12,5,2566,18:35:00,18:35:00,19,15,BELMAR,40.18059,-74.027301,North Jersey Coast Line,03A3DF,POINT (-74.027301 40.18059),#03A3DF
35798,12,5,2566,18:39:00,18:39:00,20,141,SPRING LAKE,40.150557,-74.035481,North Jersey Coast Line,03A3DF,POINT (-74.035481 40.150557),#03A3DF
35799,12,5,2566,18:43:00,18:43:00,21,79,MANASQUAN,40.120573,-74.047688,North Jersey Coast Line,03A3DF,POINT (-74.047688 40.120573),#03A3DF
35800,12,5,2566,18:48:00,18:48:00,22,122,POINT PLEASANT,40.092718,-74.048191,North Jersey Coast Line,03A3DF,POINT (-74.048191 40.092718),#03A3DF
35801,12,5,2566,18:56:00,18:56:00,23,13,BAY HEAD,40.077178,-74.046183,North Jersey Coast Line,03A3DF,POINT (-74.046183 40.077178),#03A3DF
36329,13,11,2615,04:55:00,04:55:00,1,38065,GROVE STREET LIGHT RAIL STATION,40.780317,-74.187931,Newark Light Rail,009AD1,POINT (-74.187931 40.780317),#009AD1
36330,13,11,2615,04:57:00,04:57:00,2,38064,SILVER LAKE LIGHT RAIL STATION,40.780287,-74.180343,Newark Light Rail,009AD1,POINT (-74.180343 40.780287),#009AD1
36331,13,11,2615,05:01:00,05:01:00,3,26316,BRANCH BROOK PARK LIGHT RAIL STATION,40.779638,-74.174752,Newark Light Rail,009AD1,POINT (-74.174752 40.779638),#009AD1
36332,13,11,2615,05:03:00,05:03:00,4,6907,DAVENPORT AVENUE LIGHT RAIL STATION,40.77239,-74.178272,Newark Light Rail,009AD1,POINT (-74.178272 40.77239),#009AD1
36333,13,11,2615,05:05:00,05:05:00,5,14984,BLOOMFIELD AVENUE LIGHT RAIL STATION,40.76546,-74.179863,Newark Light Rail,009AD1,POINT (-74.179863 40.76546),#009AD1
36334,13,11,2615,05:07:00,05:07:00,6,6966,PARK AVENUE NEWARK LIGHT RAIL STATION,40.75856,-74.184941,Newark Light Rail,009AD1,POINT (-74.184941 40.75856),#009AD1
36335,13,11,2615,05:09:00,05:09:00,7,14986,ORANGE STREET LIGHT RAIL STATION,40.750629,-74.184951,Newark Light Rail,009AD1,POINT (-74.184951 40.750629),#009AD1
36336,13,11,2615,05:10:00,05:10:00,8,6957,NORFOLK STREET LIGHT RAIL STATION,40.745319,-74.183033,Newark Light Rail,009AD1,POINT (-74.183033 40.745319),#009AD1
36337,13,11,2615,05:11:00,05:11:00,9,6995,WARREN STREET LIGHT RAIL STATION,40.742439,-74.181183,Newark Light Rail,009AD1,POINT (-74.181183 40.742439),#009AD1
36338,13,11,2615,05:12:00,05:12:00,10,6997,WASHINGTON STREET LIGHT RAIL STATION,40.738347,-74.174081,Newark Light Rail,009AD1,POINT (-74.174081 40.738347),#009AD1
36339,13,11,2615,05:13:00,05:13:00,11,6900,MILITARY PARK LIGHT RAIL STATION,40.737449,-74.170883,Newark Light Rail,009AD1,POINT (-74.170883 40.737449),#009AD1
36340,13,11,2615,05:15:00,05:15:00,12,42545,PENN STATION LIGHT RAIL ARRIVAL,40.73481,-74.163603,Newark Light Rail,009AD1,POINT (-74.163603 40.73481),#009AD1
36341,13,11,2615,05:18:00,05:18:00,13,26326,PENN STATION LIGHT RAIL DEPARTURE,40.73481,-74.163603,Newark Light Rail,009AD1,POINT (-74.163603 40.73481),#009AD1
36342,13,11,2615,05:21:00,05:21:00,14,39134,NJPAC/CENTRE STREET LIGHT RAIL STATION,40.739498,-74.16558,Newark Light Rail,009AD1,POINT (-74.16558 40.739498),#009AD1
36343,13,11,2615,05:23:00,05:23:00,15,39133,ATLANTIC STREET LIGHT RAIL STATION,40.74416,-74.168491,Newark Light Rail,009AD1,POINT (-74.168491 40.74416),#009AD1
36344,13,11,2615,05:24:00,05:24:00,16,39131,RIVERFRONT STADIUM LIGHT RAIL STATION,40.74559,-74.169202,Newark Light Rail,009AD1,POINT (-74.169202 40.74559),#009AD1
36345,13,11,2615,05:26:00,05:26:00,17,39130,BROAD STREET LIGHT RAIL STATION,40.747209,-74.17151,Newark Light Rail,009AD1,POINT (-74.17151 40.747209),#009AD1
44478,14,1,3319,06:02:00,06:02:00,1,142,SPRING VALLEY,41.111978,-74.043991,Pascack Valley Line,94219A,POINT (-74.043991 41.111978),#94219A
44479,14,1,3319,06:07:00,06:07:00,2,100,NANUET,41.090015,-74.014794,Pascack Valley Line,94219A,POINT (-74.014794 41.090015),#94219A
44480,14,1,3319,06:11:00,06:11:00,3,118,PEARL RIVER,41.058181,-74.02232,Pascack Valley Line,94219A,POINT (-74.02232 41.058181),#94219A
44481,14,1,3319,06:15:00,06:15:00,4,90,MONTVALE,41.040879,-74.029152,Pascack Valley Line,94219A,POINT (-74.029152 41.040879),#94219A
44482,14,1,3319,06:17:00,06:17:00,5,114,PARK RIDGE,41.032305,-74.036164,Pascack Valley Line,94219A,POINT (-74.036164 41.032305),#94219A
44483,14,1,3319,06:19:00,06:19:00,6,159,WOODCLIFF LAKE,41.021078,-74.040775,Pascack Valley Line,94219A,POINT (-74.040775 41.021078),#94219A
44484,14,1,3319,06:22:00,06:22:00,7,62,HILLSDALE,41.002414,-74.041033,Pascack Valley Line,94219A,POINT (-74.041033 41.002414),#94219A
44485,14,1,3319,06:25:00,06:25:00,8,156,WESTWOOD,40.990817,-74.032696,Pascack Valley Line,94219A,POINT (-74.032696 40.990817),#94219A
44486,14,1,3319,06:28:00,06:28:00,9,42,EMERSON,40.975036,-74.027474,Pascack Valley Line,94219A,POINT (-74.027474 40.975036),#94219A
44487,14,1,3319,06:32:00,06:32:00,10,111,ORADELL,40.953478,-74.029983,Pascack Valley Line,94219A,POINT (-74.029983 40.953478),#94219A
44488,14,1,3319,06:35:00,06:35:00,11,132,RIVER EDGE,40.935146,-74.02914,Pascack Valley Line,94219A,POINT (-74.02914 40.935146),#94219A
44489,14,1,3319,06:40:00,06:40:00,12,110,NEW BRIDGE LANDING,40.910856,-74.035044,Pascack Valley Line,94219A,POINT (-74.035044 40.910856),#94219A
44490,14,1,3319,06:43:00,06:43:00,13,5,ANDERSON STREET,40.894458,-74.043781,Pascack Valley Line,94219A,POINT (-74.043781 40.894458),#94219A
44491,14,1,3319,06:46:00,06:46:00,14,43,ESSEX STREET,40.878973,-74.051893,Pascack Valley Line,94219A,POINT (-74.051893 40.878973),#94219A
44492,14,1,3319,06:49:00,06:49:00,15,146,TETERBORO,40.864858,-74.062676,Pascack Valley Line,94219A,POINT (-74.062676 40.864858),#94219A
44493,14,1,3319,06:53:00,06:53:00,16,160,WOOD-RIDGE,40.843974,-74.078719,Pascack Valley Line,94219A,POINT (-74.078719 40.843974),#94219A
44494,14,1,3319,07:03:00,07:03:00,17,38174,FRANK R LAUTENBERG SECAUCUS LOWER LEVEL,40.761188,-74.075821,Pascack Valley Line,94219A,POINT (-74.075821 40.761188),#94219A
44495,14,1,3319,07:15:00,07:15:00,18,63,HOBOKEN,40.734843,-74.028046,Pascack Valley Line,94219A,POINT (-74.028046 40.734843),#94219A
45840,15,6,3404,24:18:00,24:18:00,1,124,PRINCETON,40.342088,-74.65887,Princeton Shuttle,DD3439,POINT (-74.65887 40.342088),#DD3439
45841,15,6,3404,24:23:00,24:23:00,2,125,PRINCETON JCT.,40.316316,-74.623753,Princeton Shuttle,DD3439,POINT (-74.623753 40.316316),#DD3439
46924,16,6,3684,09:21:00,09:21:00,1,60,HIGH BRIDGE,40.666884,-74.895863,Raritan Valley Line,F2A537,POINT (-74.895863 40.666884),#F2A537
46925,16,6,3684,09:25:00,09:25:00,2,6,ANNANDALE,40.645173,-74.878569,Raritan Valley Line,F2A537,POINT (-74.878569 40.645173),#F2A537
46926,16,6,3684,09:29:00,09:29:00,3,68,LEBANON,40.636903,-74.835766,Raritan Valley Line,F2A537,POINT (-74.835766 40.636903),#F2A537
46927,16,6,3684,09:35:00,09:35:00,4,157,WHITE HOUSE,40.615611,-74.77066,Raritan Valley Line,F2A537,POINT (-74.77066 40.615611),#F2A537
46928,16,6,3684,09:42:00,09:42:00,5,108,NORTH BRANCH,40.59202,-74.683802,Raritan Valley Line,F2A537,POINT (-74.683802 40.59202),#F2A537
46929,16,6,3684,09:51:00,09:51:00,6,129,RARITAN,40.571005,-74.634364,Raritan Valley Line,F2A537,POINT (-74.634364 40.571005),#F2A537
46930,16,6,3684,09:54:00,09:54:00,7,138,SOMERVILLE,40.566075,-74.61397,Raritan Valley Line,F2A537,POINT (-74.61397 40.566075),#F2A537
46931,16,6,3684,09:59:00,09:59:00,8,24,BRIDGEWATER,40.559904,-74.551741,Raritan Valley Line,F2A537,POINT (-74.551741 40.559904),#F2A537
46932,16,6,3684,10:02:00,10:02:00,9,21,BOUND BROOK,40.560929,-74.530617,Raritan Valley Line,F2A537,POINT (-74.530617 40.560929),#F2A537
46933,16,6,3684,10:08:00,10:08:00,10,36,DUNELLEN,40.590869,-74.463043,Raritan Valley Line,F2A537,POINT (-74.463043 40.590869),#F2A537
46934,16,6,3684,10:13:00,10:13:00,11,120,PLAINFIELD,40.618425,-74.420163,Raritan Valley Line,F2A537,POINT (-74.420163 40.618425),#F2A537
46935,16,6,3684,10:16:00,10:16:00,12,102,NETHERWOOD,40.629148,-74.403455,Raritan Valley Line,F2A537,POINT (-74.403455 40.629148),#F2A537
46936,16,6,3684,10:19:00,10:19:00,13,44,FANWOOD,40.64106,-74.385003,Raritan Valley Line,F2A537,POINT (-74.385003 40.64106),#F2A537
46937,16,6,3684,10:24:00,10:24:00,14,155,WESTFIELD,40.649448,-74.347629,Raritan Valley Line,F2A537,POINT (-74.347629 40.649448),#F2A537
46938,16,6,3684,10:27:00,10:27:00,15,47,GARWOOD,40.652569,-74.324794,Raritan Valley Line,F2A537,POINT (-74.324794 40.652569),#F2A537
46939,16,6,3684,10:30:00,10:30:00,16,32,CRANFORD,40.655523,-74.303226,Raritan Valley Line,F2A537,POINT (-74.303226 40.655523),#F2A537
46940,16,6,3684,10:36:00,10:36:00,17,31,ROSELLE PARK,40.66715,-74.266323,Raritan Valley Line,F2A537,POINT (-74.266323 40.66715),#F2A537
46941,16,6,3684,10:40:00,10:40:00,18,38105,UNION,40.683663,-74.238605,Raritan Valley Line,F2A537,POINT (-74.238605 40.683663),#F2A537
46942,16,6,3684,10:50:00,10:50:00,19,107,NEWARK PENN STATION,40.734221,-74.164554,Raritan Valley Line,F2A537,POINT (-74.164554 40.734221),#F2A537
46943,16,6,3684,10:58:00,10:58:00,20,38187,FRANK R LAUTENBERG SECAUCUS UPPER LEVEL,40.761188,-74.075821,Raritan Valley Line,F2A537,POINT (-74.075821 40.761188),#F2A537
46944,16,6,3684,11:11:00,11:11:00,21,105,NEW YORK PENN STATION,40.750046,-73.992358,Raritan Valley Line,F2A537,POINT (-73.992358 40.750046),#F2A537
48344,17,43,3779,06:14:00,06:14:00,1,38291,TRENTON TRANSIT CENTER LIGHT RAIL STA,40.218348,-74.755194,Riverline Light Rail,00008B,POINT (-74.755194 40.218348),#00008B
48345,17,43,3779,06:16:00,06:16:00,2,38292,HAMILTON AVENUE LIGHT RAIL STATION,40.211928,-74.755882,Riverline Light Rail,00008B,POINT (-74.755882 40.211928),#00008B
48346,17,43,3779,06:18:00,06:18:00,3,38293,CASS STREET LIGHT RAIL STATION,40.205409,-74.754313,Riverline Light Rail,00008B,POINT (-74.754313 40.205409),#00008B
48347,17,43,3779,06:25:00,06:25:00,4,38294,BORDENTOWN LIGHT RAIL STATION,40.14811,-74.716271,Riverline Light Rail,00008B,POINT (-74.716271 40.14811),#00008B
48348,17,43,3779,06:30:00,06:30:00,5,38295,ROEBLING LIGHT RAIL STATION,40.116909,-74.770202,Riverline Light Rail,00008B,POINT (-74.770202 40.116909),#00008B
48349,17,43,3779,06:33:00,06:33:00,6,38296,FLORENCE LIGHT RAIL STATION,40.100048,-74.805112,Riverline Light Rail,00008B,POINT (-74.805112 40.100048),#00008B
48350,17,43,3779,06:38:00,06:38:00,7,38297,BURLINGTON TOWNE CTR LIGHT RAIL STATION,40.077358,-74.859421,Riverline Light Rail,00008B,POINT (-74.859421 40.077358),#00008B
48351,17,43,3779,06:40:00,06:40:00,8,38298,BURLINGTON SOUTH LIGHT RAIL STATION,40.074558,-74.868981,Riverline Light Rail,00008B,POINT (-74.868981 40.074558),#00008B
48352,17,43,3779,06:44:00,06:44:00,9,38299,BEVERLY/EDGEWATER PARK LIGHT RAIL STA,40.06112,-74.915131,Riverline Light Rail,00008B,POINT (-74.915131 40.06112),#00008B
48353,17,43,3779,06:48:00,06:48:00,10,38300,DELANCO LIGHT RAIL STATION,40.048068,-74.95028,Riverline Light Rail,00008B,POINT (-74.95028 40.048068),#00008B
48354,17,43,3779,06:50:00,06:50:00,11,38301,RIVERSIDE LIGHT RAIL STATION,40.039219,-74.958842,Riverline Light Rail,00008B,POINT (-74.958842 40.039219),#00008B
48355,17,43,3779,06:55:00,06:55:00,12,38302,CINNAMINSON LIGHT RAIL STATION,40.016557,-74.999942,Riverline Light Rail,00008B,POINT (-74.999942 40.016557),#00008B
48356,17,43,3779,06:57:00,06:57:00,13,38303,RIVERTON LIGHT RAIL STATION,40.008939,-75.013082,Riverline Light Rail,00008B,POINT (-75.013082 40.008939),#00008B
48357,17,43,3779,06:59:00,06:59:00,14,38304,PALMYRA LIGHT RAIL STATION,40.004659,-75.020391,Riverline Light Rail,00008B,POINT (-75.020391 40.004659),#00008B
48358,17,43,3779,07:02:00,07:02:00,15,38305,ROUTE 73/PENNSAUKEN LIGHT RAIL STATION,39.993109,-75.03961,Riverline Light Rail,00008B,POINT (-75.03961 39.993109),#00008B
48359,17,43,3779,07:04:00,07:04:00,16,43288,PENNSAUKEN TRANSIT CENTER LIGHT RAIL STA,39.978276,-75.061962,Riverline Light Rail,00008B,POINT (-75.061962 39.978276),#00008B
48360,17,43,3779,07:08:00,07:08:00,17,38306,36TH STREET LIGHT RAIL STATION,39.96096,-75.079622,Riverline Light Rail,00008B,POINT (-75.079622 39.96096),#00008B
48361,17,43,3779,07:13:00,07:13:00,18,38307,WALTER RAND TRANSPORTATION CTR,39.943258,-75.12021,Riverline Light Rail,00008B,POINT (-75.12021 39.943258),#00008B
48362,17,43,3779,07:16:00,07:16:00,19,38308,COOPER STREET/RUTGERS LIGHT RAIL STATION,39.947598,-75.12407,Riverline Light Rail,00008B,POINT (-75.12407 39.947598),#00008B
48363,17,43,3779,07:18:00,07:18:00,20,38309,AQUARIUM LIGHT RAIL STATION,39.945658,-75.128682,Riverline Light Rail,00008B,POINT (-75.128682 39.945658),#00008B
48364,17,43,3779,07:21:00,07:21:00,21,38310,ENTERTAINMENT CENTER LIGHT RAIL STATION,39.94094,-75.128473,Riverline Light Rail,00008B,POINT (-75.128473 39.94094),#00008B
